Restaurant Name,Restaurant Area,Restaurant Address,Latitude,Longitude,Province,City,District/Kecamatan
Holy Smokes,Senopati,"Jl. Wolter Monginsidi No. 27, Senopati, Jakarta",-6.2391432684,106.807954162,DKI Jakarta,Jakarta Selatan,Kebayoran Baru
Pempek Megaria,Cikini,"Metropole 21, Jl. Pegangsaan Timur No. 21, Cikini, Jakarta",-6.1999,106.843739,DKI Jakarta,Jakarta Pusat,Menteng
Tjikinii Lima,Cikini,"Jl. Cikini I No. 5, Cikini, Jakarta 10330",-6.1898019937,106.837150007,DKI Jakarta,Jakarta Pusat,Menteng
Gado-Gado Bon-Bin,Cikini,"Jl. Cikini 4 No. 5, Cikini, Jakarta",-6.192958999999999,106.838377,DKI Jakarta,Jakarta Pusat,Menteng
Koffie Fictie,Bekasi Selatan,"Grand Galaxy Park, Ruko RSOD No. 026, Jl. Lotus Utara, Bekasi Selatan, Bekasi",-6.272059,106.970932,Jawa Barat,Bekasi Kota,Bekasi Selatan
Soto Mie Bogor,Setiabudi,"Loksem JS 03 - Setiabudi Selatan, Jl. H.R. Rasuna Said Kav. C3, Kuningan, Jakarta",-6.2135949475,106.829066164,DKI Jakarta,Jakarta Selatan,Setiabudi
Soto Adam,Serpong,"ITC BSD, Lantai 2, Food Court, Jl. Pahlawan Seribu,, Tangerang, Serpong Utara, Jakarta",-6.286445,106.664567,Banten,Tangerang Selatan,Serpong
Ini Yaya,Thamrin,"Thamrin 10, Jl. M.H Thamrin No. 10, Thamrin, Jakarta",-6.184835,106.823781,DKI Jakarta,Jakarta Pusat,Menteng
Pempek 99,Cinere,"Sentra Bazaar Cinere, Lantai Ground, Jl. Cinere Raya, Cinere, Depok Depok, Cinere, Jakarta",-6.333444999999998,106.78386100000002,Jawa Barat,Depok,Cinere
Kantin Berkah Jaya,Gunung Sahari,"Mega Glodok Kemayoran, Lantai 3, Food Court, Jl. Angkasa, Gunung Sahari, Jakarta",-6.1548550781,106.849399656,DKI Jakarta,Jakarta Pusat,Kemayoran
Ayam Bakar Samrat,Karet,"Jl. Prof. DR. Satrio No. 21 C, Karet, Jakarta",-6.2174999518,106.81927677200001,DKI Jakarta,Jakarta Selatan,Setiabudi
Sakeca - Horison Hotel Ciledug,Larangan,"Hotel Horison Ciledug, Jl. Ciledug Raya No. 17, Larangan, Tangerang",-6.237508,106.746905,Banten,Tangerang Kota,Larangan
Monkey Bean Corner,Kuningan,"CoHive 101, Jl. Mega Kuningan Barat, Blok E No. 1, Kuningan. Jakarta",-6.2268530457,106.82528425,DKI Jakarta,Jakarta Selatan,Setiabudi
Bakmi Udang Lotus,Mangga Dua,"Pasar Pagi Mangga Dua, Lantai 6, Food Court, Jl. Mangga Dua Raya, Mangga Dua, Jakarta",-6.1358941611,106.823124736,DKI Jakarta,Jakarta Utara,Pademangan
Dapoer Temen Gue,Meruya,"Jl. Joglo Raya No.69, Meruya, Jakarta",-6.219019,106.731445,DKI Jakarta,Jakarta Barat,Kembangan
Chicken Jab,Pondok Aren,"Bintaro Jaya Xchange Mall CBD, Lantai 1, Food Xchange, Jl. Boulevard Bintaro Jaya, Pondok Aren, Tangerang",-6.2868642572,106.72788452299999,Banten,Tangerang Selatan,Pondok Aren
Coffee Don Go,Serpong,"BSD Sektor 1.2, Jl. Rawabuntu Utara, Blok V2 No. 21A, Serpong, Tangerang",-6.299905,106.681558,Banten,Tangerang Selatan,Serpong
Dapoer Prasmanan Aunty Nelly,Kelapa Gading,"Boulevard Raya Blok QF 1 No.25., Kelapa Gading, Jakarta",-6.149309,106.909265,DKI Jakarta,Jakarta Utara,Kelapa Gading
Pawon Demak,Kampung Melayu,"Tamansari Hive, Lantai 2, Wiki Wiki Wok, Food Runway, Jl. D.I. Panjaitan, Kampung Melayu, Jakarta",-6.244904,106.875444,DKI Jakarta,Jakarta Timur,Jatinegara
Lovely Geprek,Beji,"Depok Town Square, Lantai 2, Food Square, Jl. Margonda Raya, Beji, Depok",-6.3726682135,106.832375675,Jawa Barat,Depok,Beji
Rumah Makan Mutiara Sunda,Medan Satria,"Jl. Boulevard Hijau, Blok B8 No. 53, Medan Satria, Bekasi",-6.186167,106.980944,Jawa Barat,Bekasi Kota,Medan Satria
Booba House,Tanjung Duren,"Jl. Tanjung Duren Raya No. 526B, Tanjung Duren, Jakarta",-6.181954,106.783637,DKI Jakarta,Jakarta Barat,Grogol Petamburan
Siomay Batagor Satya Tenggiri,Sunter,"Jl. Agung Utara 24 No. 23, Sunter, Jakarta",-6.138744,106.861207,DKI Jakarta,Jakarta Utara,Tanjung Priok
Warung Kopi Gue,Gunung Sahari,"Jl. Pademangan 1 Raya, Gg. 5 No.1B, Gunung Sahari",-6.1423042134,106.84295564799999,DKI Jakarta,Jakarta Utara,Pademangan
Nasi Bakar Pangestu,Mangga Besar,"Jl. Taman Sari Vlll No. 104, Mangga Besar, Jakarta",-6.156111,106.819705,DKI Jakarta,Jakarta Barat,Tamansari
Teguk,Cimanggis,"Jl. H. Moat, Cimanggis, Depok",-6.3556855015,106.84276655299999,Jawa Barat,Depok,Cimanggis
Sate Taichan Yoman,Daan Mogot,"Food & Fit Station, Ruko CityWalk, Blok C No. 15-17. Jl. Kresek Raya No. 89, Daan Mogot, Jakarta",-6.177664,106.715109,DKI Jakarta,Jakarta Barat,Cengkareng
Bakmi Keriting Pematang Siantar 36,Grogol,"Jl. Dr. Susilo III No. 18-22, Grogol, Jakarta",-6.164416,106.791492,DKI Jakarta,Jakarta Barat,Grogol Petamburan
Takoyaki Octopus Ball,Pinang Ranti,"Tamini Square, Lantai Upper Ground, Jl. Taman Mini 1, Pinang Ranti, Jakarta",-6.2912439390999975,106.88196167299999,DKI Jakarta,Jakarta Timur,Makasar
Mie Jogja Pak Karto,Meruya,"Kampung Makan Joglo 21, Jl. Joglo Raya No. 21, Meruya, Jakarta",-6.220059,106.739814,DKI Jakarta,Jakarta Barat,Kembangan
Kopi Soldadu Premium,Bogor Tengah,"Jl. Raya Pajajaran No. 26, Babakan, Bogor Tengah, Bogor",-6.5913987487,106.80459201299999,Jawa Barat,Bogor Kota,Bogor Tengah
Jumbo Strudle Bogor,Bogor Tengah,"Jl. Raya Pajajaran No. 3f, Baranangsiang, Bogor Tengah, Bogor",-6.603189,106.805721,Jawa Barat,Bogor Kota,Bogor Timur
Pie Hongki,Pluit,"Jl. Pluit Karang Utara No.88, Pluit, Jakarta",-6.1106818975,106.776066049,DKI Jakarta,Jakarta Utara,Penjaringan
Rumah Makan Pandawalima,Bogor Utara,"Jl. Achmad Adnawijaya No. 99, Bogor Utara, Bogor",-6.570556,106.814806,Jawa Barat,Bogor Kota,Bogor Utara
Marika Mie Kocok Bandung,Bekasi Utara,"Summarecon Mall Bekasi, Lantai Ground, Jl. Ahmad Yani, Bekasi Utara, Bekasi",-6.2257464949,107.00230233299999,Jawa Barat,Bekasi Kota,Bekasi Utara
Scoopter,Fatmawati,"Eleven Trees, Jl. Intan Ujung No. 11, Fatmawati, Jakarta",-6.2957682164,106.803211346,DKI Jakarta,Jakarta Selatan,Cilandak
Potato Station,Kelapa Gading,"Mall Artha Gading, Lantai 1, Jl. Boulevard Artha Gading, Kelapa Gading, Jakarta",-6.1465937615999975,106.891609914,DKI Jakarta,Jakarta Utara,Kelapa Gading
AZ Coffee & Jajan,Medan Satria,"Jl. Bangau 8 No. 5, Harapan Jaya, Medan Satria, Bekasi",-6.203138,106.99130900000002,Jawa Barat,Bekasi Kota,Bekasi Utara
Yong Tau Fu,Cempaka Putih,"Apartemen The Green Pramuka City, Lantai Ground, Jl. Jend. Ahmad Yani, Cempaka Putih, Jakarta, Cempaka Putih, Jakarta",-6.1903366411,106.874292232,DKI Jakarta,Jakarta Pusat,Cempaka Putih
Soto Kudus Palem Dua,Cibubur,"Jl. Alternatif Cibubur, Cibubur, Jakarta",-6.3849739725,106.936067864,Jawa Barat,Bogor Kabupaten,Gunung Putri
Bebek Kwek Kwek,Cinere,"Cinere Mall, Lantai Basement, Food Court, Jl. Cinere Raya No. 1, Cinere, Depok",-6.3241486916,106.783905141,Jawa Barat,Depok,Cinere
Radja Cobek,Bekasi Utara,"Jl. Raya Karang Satria No. 72, Bekasi Utara, Bekasi",-6.2242523144,107.041726447,Jawa Barat,Bekasi Kabupaten,Tambun Utara
MAJAME Street Food Cafe,Pondok Aren,"Jl. Kasuari Raya Blok HB 2 No. 19B, Pondok Aren, Tangerang",-6.279124,106.710516,Banten,Tangerang Selatan,Pondok Aren
Alternative Coffee,Pondok Indah,"Melodia Musik, Jl. Sultan Iskandar Muda No. 15B, Pondok Indah, Jakarta",-6.25855,106.781985,DKI Jakarta,Jakarta Selatan,Kebayoran Lama
Mie Kingkong,Bogor Tengah,"Bogor Trade Mall, Lantai 3, Food Court, Jl. Ir H Juanda No. 68, Bogor Tengah, Bogor",-6.6053737473,106.795413829,Jawa Barat,Bogor Kota,Bogor Tengah
Resto Cibalung,Bogor Timur,"Resto Cibalung, Bogor, Jakarta, Bogor Timur, Bogor 16136",-6.690194,106.808274,Jawa Barat,Bogor Kabupaten,Cijeruk
Kopi Cinta,Pasar Minggu,"Jl. Aup Barat I No. 45, Pasar Minggu, Jakarta",-6.295911,106.834127,DKI Jakarta,Jakarta Selatan,Pasar Minggu
Jim's and Cat,Bekasi Selatan,"Galaxy Food Court, Jl. Boulevard Raya, Blok U No. 1, Bekasi Selatan, Bekasi",-6.258711,106.972526,Jawa Barat,Bekasi Kota,Bekasi Selatan
Muamalat Hijrah Coffee,Kuningan,"Jl. Prof. DR. Satrio No. Kav. 18, Kuningan, Jakarta",-6.225007,106.8307,DKI Jakarta,Jakarta Selatan,Setiabudi
Lapis Talas Laris,Serpong Utara,"Ruko Paramount Blitz, Blok A No. 23, Jl. Boulevard Raya Gading Serpong, Serpong Utara, Tangerang",-6.2452747736,106.612140834,Banten,Tangerang Kabupaten,Kelapa Dua
Waroeng_eat.NOW,Ciputat Timur,"Jl. Pesanggrahan No. 43, Ciputat Timur, Tangerang",-6.307219,106.754077,Banten,Tangerang Selatan,Ciputat Timur
Kedai Ayam Geprek & Pempek Palembang Mantul,Rawalumbu,"Jl. Lumbu Utara IIB No. 203, Rawalumbu, Bekasi",-6.284914350399999,107.000777162,Jawa Barat,Bekasi Kota,Rawalumbu
Bakmi Tarix,Roxy,"ITC Roxy Mas, Lantai Basement, Jl. KH Hasyim Ashari, Roxy, Jakarta",-6.167255,106.803217,DKI Jakarta,Jakarta Pusat,Gambir
Una Nha Drink,Pondok Aren,"Jl. Jombang Raya No.40, Pondok Aren, Tangerang",-6.284232,106.702129,Banten,Tangerang Selatan,Pondok Aren
Kuliner Jadoel,Gambir,"Jl. Veteran I, Gambir, Jakarta",-6.169855,106.829884,DKI Jakarta,Jakarta Pusat,Gambir
Lapo Tao Toba dan Bakmi Siantar,Kemayoran,"ITC Cempaka Mas, Lantai 5, Food Court, Jl. Letjen Suprapto, Kemayoran, Jakarta",-6.1648579559000005,106.877500824,DKI Jakarta,Jakarta Pusat,Kemayoran
Sambalin,Jatiuwung,"Food Culinary, Jl. Taman Permata No. 301, Jatiuwung, Tangerang 15117",-6.2235480516,106.587298549,Banten,Tangerang Kabupaten,Curug
Bebek Renon,Lebak Bulus,"Jl. Lebak Bulus Raya 1 No. 10, Lebak Bulus, Jakarta",-6.293663,106.78238600000002,DKI Jakarta,Jakarta Selatan,Cilandak
Pondok Selera,Mangga Dua,"Pasar Pagi Mangga Dua, Lantai 6, Food Court, Jl. Mangga Dua Raya, Mangga Dua, Jakarta",-6.1359651658,106.82306472200001,DKI Jakarta,Jakarta Utara,Pademangan
Planet Drinks,Cibubur,"Food Court Fox, Taman Rekreasi Wiladatika Jl. Jambore No. 1, Cibubur, Jakarta",-6.3697146807000005,106.892228834,Jawa Barat,Depok,Cimanggis
Fun Thai Tea,Ancol,"Taman Impian Jaya Ancol, Dunia Fantasi, Jl. Lodan No. 7, Ancol, Jakarta",-6.122797,106.830826,DKI Jakarta,Jakarta Utara,Pademangan
Ayam Lunak Kremes Oma Rina,Matraman,"Jl. Matraman Raya No 141A, Matraman, Jakarta",-6.20913,106.859769,DKI Jakarta,Jakarta Timur,Matraman
Dapur Painan,Jagakarsa,"Puri Rinda Residence, Ruko A1, Jl. Moh. Kahfi 1, Jagakarsa, Jakarta",-6.3306570798,106.808587499,DKI Jakarta,Jakarta Selatan,Jagakarsa
Gold Digger Coffe & Co.,Pasar Minggu,"Gedung ANTAM, Jl. TB. Simatupang No. 1, Pasar Minggu, Jakarta",-6.301949,106.843474,DKI Jakarta,Jakarta Selatan,Jagakarsa
d'Cobek,Bintaro,"D' Hoek, Jl. Bintaro Utama, Bintaro, Jakarta",-6.271864,106.755711,DKI Jakarta,Jakarta Selatan,Pesanggrahan
RM Wong Tegal,Tanjung Duren,"Jl. Tanjung Duren Barat 6 No. 5, Tanjung Duren, Jakarta",-6.1823148725,106.782992184,DKI Jakarta,Jakarta Barat,Grogol Petamburan
Bumbu Ireng Yu San,Tanah Sareal,"Jl. Heulang No. 1, Tanah Sareal, Bogor",-6.567482000000001,106.801351,Jawa Barat,Bogor Kota,Tanah Sereal
Ngentol Yuk!,Bendungan Hilir,"Jl. Bendungan Walahar No. 1, Bendungan Hilir, Jakarta",-6.215936,106.814167,DKI Jakarta,Jakarta Pusat,Tanah Abang
Martabak Hokky,Kec. Tangerang,"Ruko Permata Niaga 3, Jl. Taman Royal, Kec. Tangerang, Tangerang",-6.171423,106.584468,Banten,Tangerang Kota,Periuk
RM Manado Andy Watung,Cempaka Putih,"Jl. Jenderal Ahmad Yani No.14A, Cempaka Putih, Jakarta",-6.1873434084,106.875244081,DKI Jakarta,Jakarta Pusat,Cempaka Putih
Ini Cafe,Bogor Utara,"Jl. Pandu Raya No. 47, Bogor Utara, Bogor",-6.5840870296,106.817524284,Jawa Barat,Bogor Kota,Bogor Utara
Boo Ba,Grogol,"PHX Grogol, Lantai 1, Jl. Dr. Susilo No. 342, Grogol, Jakarta",-6.165874,106.791983,DKI Jakarta,Jakarta Barat,Grogol Petamburan
Hidangan Sederhana,Cimanggis,"Jl. Pekapuran No. 152, Cimanggis, Depok",-6.3999859182000005,106.877840459,Jawa Barat,Depok,Tapos
Fake Burger,Cipayung,"Jl. Cipayung Raya No. 62, Cipayung, Jakarta",-6.332917,106.892559,DKI Jakarta,Jakarta Timur,Cipayung
Nasi Kebuli Bang JeJe,Cibodas,"Ruko CBD Palem Semi, Jl. Palem Raja Raya No. 27, Cibodas, Tangerang",-6.218761,106.614554,Banten,Tangerang Kota,Cibodas
Warung Ibu Lena,Serpong Utara,"WTC Matahari, Lantai Upper Ground, Food Court, Jl. Raya Serpong, Serpong Utara, Tangerang",-6.266234,106.655543,Banten,Tangerang Selatan,Serpong Utara
Ayam Gepuk Merapi,Kuningan,"Kuningan City, Lantai 3, Urbaneat, Jl. Prof Dr Satrio, Kuningan, Jakarta",-6.224834,106.829345,DKI Jakarta,Jakarta Selatan,Setiabudi
Karaagee Oishi,Pondok Bambu,"Mall Cipinang Indah, Lantai Lower Ground, Jl. Cipinang, Pondok Bambu, Jakarta",-6.2382360514999995,106.894467137,DKI Jakarta,Jakarta Timur,Duren Sawit
Xing Fu Vegetarian,Mangga Dua,"Jl. Mangga Dua Dalam No. 156E, Mangga Dua, Jakarta",-6.1398480747000015,106.82518500799999,DKI Jakarta,Jakarta Pusat,Sawah Besar
Snack Seafood,Ancol,"Taman Impian Jaya Ancol, Dunia Fantasi, Jl. Lodan No. 7, Ancol, Jakarta",-6.123831,106.83066,DKI Jakarta,Jakarta Utara,Pademangan
Kwetiaw Sapi Gajah Mada 89,Mangga Dua,"Pasar Pagi Mangga Dua, Lantai 6, Food Court, Jl. Mangga Dua Raya, Mangga Dua, Jakarta",-6.1359254965,106.822997666,DKI Jakarta,Jakarta Utara,Pademangan
Soto Mie Jason,Tanah Abang,"Metro Tanah Abang, Lantai 6, Food Gallery, Jl. KH Mas Mansyur, Tanah Abang, Jakarta",-6.187599,106.816329,DKI Jakarta,Jakarta Pusat,Tanah Abang
Soto Lamongan & Nasi Goreng Spesial Ibu Romlah,Gambir,"Lenggang Jakarta, Blok D-18, Jl. Medan Merdeka Selatan, Gambir, Jakarta",-6.180331,106.825589,DKI Jakarta,Jakarta Pusat,Gambir
Bakso Komet,Cawang,"Pusat Grosir Cililitan, Lantai Ground, Jl. Mayjen Sutoyo No. 76, Cawang, Jakarta",-6.260646,106.866091,DKI Jakarta,Jakarta Timur,Kramatjati
Pizza Diva,Bekasi Utara,"Summarecon Mall Bekasi, Food Hall, Lantai Ground, Jl. Ahmad Yani, Bekasi Utara, Bekasi",-6.2270236943,107.00035169700001,Jawa Barat,Bekasi Kota,Bekasi Utara
Pisang Goreng Ro' ah,Kelapa Gading,"Mall Kelapa Gading 3, Lantai 3, Eat & Eat, Jl. Kelapa Gading Boulevard, Kelapa Gading, Jakarta",-6.157157,106.909006,DKI Jakarta,Jakarta Utara,Kelapa Gading
Ropang City,Grogol,"Jl. Dr. Muwardi I No. 37, Grogol, Jakarta",-6.164295,106.794179,DKI Jakarta,Jakarta Barat,Grogol Petamburan
Al Arabii Restaurant,Cawang,"Jl. Letjen M.T. Haryono No.377, Cawang, Jakarta",-6.245128,106.86852,DKI Jakarta,Jakarta Timur,Kramatjati
JONI Kitchen & Dimsum,Daan Mogot,"Ruko Seventh Walk, Jl. Citra Garden VII, Blok A1 No. 6, Daan Mogot, Jakarta",-6.144707,106.700952,DKI Jakarta,Jakarta Barat,Kalideres
Teh Tarik Jun's,Beji,"Jl. Margonda Raya No. 489 A, Beji, Depok",-6.363563,106.833413,Jawa Barat,Depok,Beji
Nasi Campur Cemara,Cipondoh,"Rukan Great Wall B.98, Jl. Green Lake City Boulevard, Cipondoh, Tangerang",-6.1896510000000005,106.700583,Banten,Tangerang Kota,Cipondoh
Soto Kudus Cideng,Tanah Abang,"Jl. Cideng Barat Dalam No. 4B, Tanah Abang, Jakarta",-6.181209,106.813089,DKI Jakarta,Jakarta Pusat,Gambir
Bakso Podomoro,Cakung,"Jl. Penggilingan Elok, No. 49, Cakung, Jakarta",-6.1957664153,106.93561054700001,DKI Jakarta,Jakarta Timur,Cakung
Orchard Road Ice Cream Singapore,Kelapa Gading,"Mall Artha Gading, Lantai 1, Jl. Boulevard Artha Gading, Kelapa Gading, Jakarta",-6.1464070863,106.892141327,DKI Jakarta,Jakarta Utara,Kelapa Gading
Nasi Goreng Semarang,Senen,"Plaza Atrium, Lantai 4, Food Colony, Jl. Senen Raya No. 135, Senen, Jakarta",-6.1769166265,106.841102242,DKI Jakarta,Jakarta Pusat,Senen
Sop Iga & Soto Ayam Fatimah,Gambir,"Lenggang Jakarta, Blok C-6 Jl. Medan Merdeka Selatan, Gambir, Jakarta",-6.179823000000002,106.825273,DKI Jakarta,Jakarta Pusat,Gambir
Phet Coffee,Jatisampurna,"Jl. Raya Pasar Kranggan Ruko. 9 Jatisampurna, Bekasi",-6.362645325800001,106.9222394,Jawa Barat,Bekasi Kota,Jatisampurna
Bakmi Siantar Tujuh Naga,Kelapa Gading,"Mall Kelapa Gading 3, Lantai 3, Eat & Eat, Jl. Kelapa Gading Boulevard, Kelapa Gading, Jakarta",-6.1571841440999995,106.90998539299999,DKI Jakarta,Jakarta Utara,Kelapa Gading
The Grit Coffee and Talent House,Pinang Ranti,"Jl. Raya Pondok Gede No. 15, Pinang Ranti, Jakarta",-6.290491,106.883843,DKI Jakarta,Jakarta Timur,Makasar
Kopi Kopi,Pasar Minggu,"Pejaten Village, Eat and Eat, Lantai 3, Jl. Warung Jati Barat, Pasar Minggu, Jakarta",-6.2807389059000025,106.82875067,DKI Jakarta,Jakarta Selatan,Pasar Minggu
Kopi Senayan,Senayan,"Hanglekir Exchange, Jl. Hang Lekir No. 2, Senayan, Jakarta",-6.232135,106.795787,DKI Jakarta,Jakarta Selatan,Kebayoran Baru
Ketupat Rusmini,Tebet,"Kota Kasablanka, Lantai 2, Eat & Eat, Jl. Casablanca Raya, Tebet, Jakarta",-6.224126999999998,106.843212,DKI Jakarta,Jakarta Selatan,Tebet
Geprek Mewek,Larangan,"Jl. H. Adam Malik No.65, Larangan, Tangerang",-6.244663,106.74593,Banten,Tangerang Kota,Larangan
Bakmi Korio,Serpong Utara,"Pasar 8, Ruko RH 11, Jl. Jalur Sutera, Serpong Utara, Tangerang",-6.2390859425,106.651706099,Banten,Tangerang Selatan,Serpong Utara
Gerobak Lattee,Sawangan,"Jl. Raya Bojongsari No. 23, Sawangan, Depok",-6.403756,106.74168799999998,Jawa Barat,Depok,Bojongsari
Green Bowl,Cengkareng,"Ruko Taman Palem Lestari, Jl. Taman Palem Lestari, Cengkareng, Jakarta",-6.1349177623000015,106.719622649,DKI Jakarta,Jakarta Barat,Cengkareng
Bebek Goreng Hartati,Gunung Sahari,"Golden Truly Mall, Lantai 1, Food Court, Jl. Gunung Sahari No. 59, Gunung Sahari, Jakarta",-6.1618885796,106.839046664,DKI Jakarta,Jakarta Pusat,Kemayoran
Dapur Kurnia,Taman Mini,"Taman Mini Indonesia Indah, Jl. Dunia Air Tawar, Taman Mini, Jakarta",-6.304474,106.895678,DKI Jakarta,Jakarta Timur,Cipayung
Waroeng Citra,Serpong Utara,"Jl. Komp. Duta Bintaro, Blok A2 No. 1, Serpong Utara, Tangerang",-6.231223,106.67258,Banten,Tangerang Selatan,Serpong Utara
Yuniknak,Dharmawangsa,"D'Cube, Jl. Wolter Monginsidi No. 104, Dharmawangsa, Jakarta",-6.23915,106.815279,DKI Jakarta,Jakarta Selatan,Kebayoran Baru
Warung Kaikee,Kemang,"Jl. Kemang Raya No. 31, Kemang, Jakarta",-6.255764856900001,106.81420303799999,DKI Jakarta,Jakarta Selatan,Mampang Prapatan
"Masakan Khas Medan ""Sasa""",Mangga Dua,"Mangga Dua Square, Lantai 3, Food City, Jl. Gunung Sahari, Mangga Dua, Jakarta",-6.1382173098,106.831414438,DKI Jakarta,Jakarta Utara,Pademangan
Pempek Palembang Rudi Rakino,Dharmawangsa,"Loksem JS 32 - Pujasera Melawai, Jl. Melawai No.22, Melawai, Jakarta",-6.247555114,106.800790652,DKI Jakarta,Jakarta Selatan,Kebayoran Baru
Kedai Tus Tus,Pondok Aren,"Pondok Pucung Indah 2, Jl. Jombang Raya, Blok A 23 No. 6B, Pondok Aren, Tangerang",-6.287168,106.703,Banten,Tangerang Selatan,Pondok Aren
I Love Crepes,Bekasi Selatan,"Revo Town, Lantai Lower Ground, Jl. Jend. Ahmad Yani, Bekasi Selatan, Bekasi",-6.254589,106.989819,Jawa Barat,Bekasi Kota,Bekasi Selatan
Nasi Goreng Gila & Soto Ayam Warung Ridwan,Gambir,"Lenggang Jakarta, Blok A-18 Jl. Medan Merdeka Selatan, Gambir, Jakarta",-6.1800909152,106.82532448299999,DKI Jakarta,Jakarta Pusat,Gambir
Coffee In The Day,Cibodas,"Jl. Imam Bonjol No. 32, Cibodas, Tangerang",-6.221542,106.616439,Banten,Tangerang Kota,Cibodas
Cane Coffee,Jagakarsa,"Jl. Tj. Barat Raya No.2B, Jagakarsa, Jakarta",-6.31036,106.838899,DKI Jakarta,Jakarta Selatan,Jagakarsa
Mie Ayam Selaras,Sukmajaya,"Jl. Tole Iskandar, Sukmajaya, Depok",-6.4068531825,106.840693205,Jawa Barat,Depok,Sukma Jaya
Warong Manado,SCBD,"Energy Building, Lantai B1, Food Court, Jl. Jenderal Sudirman, SCBD, Jakarta",-6.225992,106.806427,DKI Jakarta,Jakarta Selatan,Kebayoran Baru
Ayam Taliwang,Jatinegara,"Mall@Bassura City, Lantai 2, Eat & Eat, Jl. Jendral Basuki Rahmat No. 1, Jatinegara, Jakarta",-6.2235880476,106.878541857,DKI Jakarta,Jakarta Timur,Jatinegara
Cowcow Brico,Sudirman,"Wisma Keiai - Kyoei Prince, Lantai Basement, Jl. Jenderal Sudirman, Sudirman, Jakarta",-6.2061644937,106.821625717,DKI Jakarta,Jakarta Pusat,Tanah Abang
Gado Gado Ny. Moy,Senen,"Plaza Atrium, Lantai 4, Food Colony, Jl. Senen Raya number. 135, Jakarta, Indonesia",-6.1771159575,106.84114515700001,DKI Jakarta,Jakarta Pusat,Senen
Pempek Bro!,Cengkareng,"Jl. Mutiara Taman Palem, Blok B8 No. 61, Cengkareng, Jakarta",-6.1420561999,106.731876656,DKI Jakarta,Jakarta Barat,Cengkareng
"Sop Kaki Kambing ""Bang Mail""",Senopati,"Pujasera Blok S, Food Court, Jl. Birah 7, Senopati, Jakarta",-6.2366232546,106.81524708799999,DKI Jakarta,Jakarta Selatan,Kebayoran Baru
Geometry Haircut & Coffee,Cimanggis,"Jl. Pondok Duta Raya No. 61, Cimanggis, Depok",-6.368415174299999,106.848427355,Jawa Barat,Depok,Cimanggis
Mie Bangka,Gunung Sahari,"Jl. Gunung Sahari Raya No. 2, Gunung Sahari, Jakarta",-6.137709,106.83288799999998,DKI Jakarta,Jakarta Utara,Pademangan
KepitingQu,Pondok Melati,"Jl. Puri Gading Raya No. 2, Pondok Melati, Bekasi",-6.314702035599999,106.940083466,Jawa Barat,Bekasi Kota,Pondok Melati
Lobstar,Beji,"Jl. Ir H. Juanda No. 25, Beji, Depok",-6.3780827572000005,106.834187842,Jawa Barat,Depok,Beji
Pecel Ayam & Pecel Lele,Puri Indah,"Loksem Puri Kencana, Jl. Puri Kencana No. J1/N, Puri Indah, Jakarta",-6.191042948200001,106.745005063,DKI Jakarta,Jakarta Barat,Kembangan
Pondok Bakso Masdhi,Neglasari,"Jl. Marsekal Surya Darma, Neglasari, Tangerang",-6.151703,106.632909,Banten,Tangerang Kota,Neglasari
Himura Coffee,Pancoran Mas,"Gedung Parkir Cahaya Bersaudara, Jl. Kampung Lio No.34, Pancoran Mas, Depok",-6.39074,106.820145,Jawa Barat,Depok,Pancoran Mas
Baso Malang Cak Kris,Cibodas,"Supermal Karawaci, Lantai 1, Makansutra, Jl. Boulevard Diponegoro No. 105, Cibodas, Tangerang",-6.226891,106.607095,Banten,Tangerang Kabupaten,Kelapa Dua
Fiesta Ready Meal,Cawang,"Pusat Grosir Cililitan, Lantai Ground, Halte Walk, Jl. Mayjen Sutoyo No. 76, Cawang, Jakarta",-6.168595,106.786314,DKI Jakarta,Jakarta Barat,Grogol Petamburan
Kopilaku,Bekasi Selatan,"Galaxy Food Court, Jl. Pulo Sirih Utama Blok U No. 1, Bekasi Selatan, Bekasi",-6.258768,106.972594,Jawa Barat,Bekasi Kota,Bekasi Selatan
Kedai Betawi Encing,Pasar Minggu,"D'hara 24 Foodcourt, Jl. Salihara No. 16, Pasar Minggu, Jakarta",-6.282354,106.838387,DKI Jakarta,Jakarta Selatan,Pasar Minggu
Wins Cafe & Bistro,Cipayung,"Ruko Green View, Blok A No. 4-5, Jl. Cipayung Raya, Cipayung, Jakarta",-6.3327339999999985,106.891386,DKI Jakarta,Jakarta Timur,Cipayung
Sop Ikan Batam & Rames Sunda Zulmi,Gambir,"Lenggang Jakarta, Blok B-13, Jl. Medan Merdeka Selatan, Gambir, Jakarta",-6.180111,106.825134,DKI Jakarta,Jakarta Pusat,Gambir
Pork Shelter,Serpong Utara,"Ps. Delapan, Jl. Alam Sutera Boulevard, Serpong Utara, Tangerang",-6.240249,106.651593,Banten,Tangerang Selatan,Serpong Utara
Intermezzo,Pondok Aren,"Taman Jajan CBD, Jl. Boulevard Bintaro Jaya, Bintaro Sektor 7, Pondok Aren, Tangerang",-6.278449,106.725356,Banten,Tangerang Selatan,Pondok Aren
Lius Coffee,Makasar,"Bandara Halim Perdanakusuma, Jl. Protokol Halim Perdana Kusuma, Makasar, Jakarta",-6.265024,106.885708,DKI Jakarta,Jakarta Timur,Makasar
Kabidon,Kemang,"Jl. Belimbing No. 1, Kemang, Jakarta",-6.271489,106.825149,DKI Jakarta,Jakarta Selatan,Pasar Minggu
Ayam Taliwang Cendana,Tebet,"Kota Kasablanka, Lantai 2, Eat & Eat, Jl. Casablanca Raya, Tebet, Jakarta",-6.22264,106.842927,DKI Jakarta,Jakarta Selatan,Tebet
Taichan Modus,Jatiuwung,"Food Culinary, Jl. Taman Permata No. 301, Jatiuwung, Tangerang 15117",-6.223542,106.587324,Banten,Tangerang Kabupaten,Curug
Bakmi Aliong 68,Jatiuwung,"Ruko Star of Asia, Jl. Ruko Star of Asia No. 96, Jatiuwung, Tangerang",-6.232685,106.584489,Banten,Tangerang Kabupaten,Curug
Saung Intan,Cawang,"Pusat Grosir Cililitan, Lantai 3A, Jl. Mayjen Sutoyo No. 76, Cawang, Jakarta",-6.281545,106.851763,DKI Jakarta,Jakarta Timur,Kramatjati
Mie Ayam Bang JiUn,Tebet,"Jl. Tebet Dalam II No. 20, Tebet, Jakarta",-6.226677,106.848336,DKI Jakarta,Jakarta Selatan,Tebet
Gado-Gado/Ketoprak & Lontong Sayur Jakarta Madrae,Gambir,"Lenggang Jakarta, Blok D-15, Jl. Medan Merdeka Selatan, Gambir, Jakarta",-6.179681,106.82493,DKI Jakarta,Jakarta Pusat,Gambir
Kantin Rina,Pulo Gadung,"Pulo Gadung Trade Center, Lantai 2, Food Court, Jl. Raya Bekasi, Pulo Gadung, Jakarta",-6.1824975353,106.917231045,DKI Jakarta,Jakarta Timur,Cakung
Bakara Cafe,Sukmajaya,"Jl. Cemara Raya No. 11, Sukmajaya, Depok",-6.383664,106.846702,Jawa Barat,Depok,Sukma Jaya
Lapo Galilea,Bekasi Selatan,"Jl. Halimun 1 Blok BC No. 298, Bekasi Selatan, Bekasi",-6.24281,106.990527,Jawa Barat,Bekasi Kota,Bekasi Selatan
Ainam Singapore Chicken Rice,Jelambar,"Komplek Taman Harapan Indah, Blok BB No. 12., Jelambar, Jakarta",-6.144419999999998,106.787492,DKI Jakarta,Jakarta Barat,Grogol Petamburan
D' Yudis Resto,Pondok Melati,"Jl. Raya Hankam No. 31, Pondok Melati, Bekasi",-6.3134227183,106.924828402,Jawa Barat,Bekasi Kota,Pondok Melati
Papercup Coffee,Kelapa Gading,"Mall Artha Gading, Lantai Basement, Jl. Boulevard Artha Gading, Kelapa Gading, Jakarta",-6.146057,106.892337,DKI Jakarta,Jakarta Utara,Kelapa Gading
Roti 'O,Makasar,"Bandara Halim Perdanakusuma, Jl. Protokol Halim Perdana Kusuma, Makasar, Jakarta",-6.265155,106.885469,DKI Jakarta,Jakarta Timur,Makasar
Ayam Penyet Ibu Asih,Pancoran Mas,"Jl. Pipit Raya No. 38, Pancoran Mas, Depok",-6.391083,106.806069,Jawa Barat,Depok,Pancoran Mas
ROYAL SEA FOOD,Tanah Sareal,"Jl. Ahmad Yani No.40, Tanah Sareal, Bogor",-6.577155,106.799514,Jawa Barat,Bogor Kota,Tanah Sereal
Kopi Guyu,Kedoya,"Metro Park Residence, Tower Manhattan, Lantai Upper Ground, Jl. Pilar Mas Utama Kav. 28, Kedoya, Jakarta",-6.1862080000000015,106.75741399999998,DKI Jakarta,Jakarta Barat,Kebon Jeruk
YoungCrew Cafe,Sawangan,"Jl. Muchtar Raya, Sawangan, Depok",-6.4039401623000005,106.77090112100001,Jawa Barat,Depok,Sawangan
Raja Mie Pak Min & Seafood,Medan Satria,"Giant, Lantai Ground, Jl. Harapan Indah, Medan Satria, Bekasi",-6.187073000000002,106.973988,Jawa Barat,Bekasi Kota,Medan Satria
Rangkai Kopi,Pondok Aren,"Jl. Jombang Raya No. 10, Pondok Aren, Tangerang",-6.273282,106.707893,Banten,Tangerang Selatan,Pondok Aren
I Say Moo,Tambora,"Season City, Lantai 2, Jl. Prof. Dr. Latumenten No. 33, Tambora, Jakarta",-6.153422,106.796073,DKI Jakarta,Jakarta Barat,Tambora
Warung Sambal Babeh,Tanjung Duren,"Live Yard, Jl. Tanjung Duren Raya No. 61, Tanjung Duren, Jakarta",-6.1744279815,106.783682182,DKI Jakarta,Jakarta Barat,Grogol Petamburan
Kantin Happy Yes,Mangga Besar,"LTC Glodok, Lantai 2, Food Court, Jl. Hayam Wuruk No. 127, Hayam Wuruk, Jakarta",-6.146196,106.81686299999998,DKI Jakarta,Jakarta Barat,Tamansari
Ichiban Dorayaki,Jatinegara,"Mall@Bassura City, Lantai 2, Eat & Eat, Jl. Jendral Basuki Rahmat No. 1, Jatinegara, Jakarta",-6.2235387192,106.878565326,DKI Jakarta,Jakarta Timur,Jatinegara
RM Soto Al Bayan,Melawai,"Blok M Square, Lantai Upper Ground, Jl. Melawai Raya, Melawai, Jakarta",-6.2447841758000004,106.80015496899999,DKI Jakarta,Jakarta Selatan,Kebayoran Baru
Warung Emak Nasi Bakar,Sukmajaya,"Ruko Sector Alpinia, Blok A No. 19, Jl. Raya KSU, Sukmajaya, Depok",-6.4189288947000005,106.82619083600001,Jawa Barat,Depok,Sukma Jaya
Ayam Penyet Surabaya,Beji,"Jl. Margonda Raya No. 189, Beji, Depok",-6.3857599999999985,106.828424,Jawa Barat,Depok,Beji
Sebelas 12,Serpong,"Jl. Hanjuang Raya, Blok RF 2 No.3, Serpong, Tangerang",-6.306742,106.681573,Banten,Tangerang Selatan,Serpong
Kopinya Teman,Rawamangun,"Jl. Waru, Rawamangun, Jakarta",-6.196598000000002,106.889049,DKI Jakarta,Jakarta Timur,Pulogadung
Jussert Juice & Dessert,Manggarai,"Pasaraya Manggarai, Lantai Basement, DAPURAYA, Jl. Sultan Agung No. 1, Manggarai, Jakarta",-6.209351,106.847104,DKI Jakarta,Jakarta Selatan,Setiabudi
Sop Ayam Mbah Min Klaten,Bekasi Selatan,"Ruko Griya Alifa, Blok A No. 4, Jl. Pulo Ribung, Bekasi Selatan, Bekasi",-6.267087999999998,106.974187,Jawa Barat,Bekasi Kota,Bekasi Selatan
RM. Bakmie Tip Top,Jatinegara,"Jl. Raya Cipinang Muara, Jatinegara, Jakarta",-6.2277082879,106.88673432899999,DKI Jakarta,Jakarta Timur,Jatinegara
MM Resto,Pluit,"Jl. Pluit Karang Utara No. 42A, Pluit, Jakarta",-6.1114313153,106.778083071,DKI Jakarta,Jakarta Utara,Penjaringan
Wong Kudus,Kec. Tangerang,"Jl. Veteran Raya No. 9, Kec. Tangerang, Tangerang",-6.185479,106.6403,Banten,Tangerang Kota,Tangerang
E - Jazz Coffee,Cakung,"Jakarta Garden City, The Way, Jl. Jakarta Garden City, Cakung, Jakarta",-6.1799882502,106.952511146,DKI Jakarta,Jakarta Timur,Cakung
Alinskietchen,Thamrin,"Jl. Blora No.8, Thamrin, Jakarta",-6.199838,106.823533,DKI Jakarta,Jakarta Pusat,Menteng
Lily Food Lovers,Kelapa Gading,"Mall Artha Gading, Lantai 2, Eat Street Jl. Artha Gading Selatan No. 1, Kelapa Gading, Jakarta",-6.145951,106.891911,DKI Jakarta,Jakarta Utara,Kelapa Gading
Mitarik Laiker Express,Tanjung Duren,"Jl. Tj. Duren Utara 4 No. 56, Tanjung Duren, Jakarta",-6.170570992000001,106.78310684799999,DKI Jakarta,Jakarta Barat,Grogol Petamburan
Mrs. Waffles,Sukmajaya,"Pesona Square Mall, Lantai Lower Ground, Jl. Ir. H. Juanda No.99, Sukmajaya, Depok",-6.38014,106.844826,Jawa Barat,Depok,Sukma Jaya
Ketan Susu Jawara,Penjaringan,"Jl. Terusan Bandengan, Penjaringan, Jakarta",-6.1373779239,106.78908348,DKI Jakarta,Jakarta Utara,Penjaringan
Kopi Baheula,Bogor Utara,"Jl. Bangbarung Raya No. 15, Bogor Utara, Bogor",-6.5812709582,106.809425354,Jawa Barat,Bogor Kota,Bogor Utara
Smooky Days,Daan Mogot,"Mall Matahari, Lantai Ground, Jl. Daan Mogot, Daan Mogot, Jakarta 11840",-6.1511260000000005,106.714222,DKI Jakarta,Jakarta Barat,Kalideres
Cheese Tea Inc,Sudirman,"fX Sudirman, Lantai F5, Eat & Eat, Jl. Jenderal Sudirman, Sudirman, Jakarta",-6.224800925399999,106.80407166399999,DKI Jakarta,Jakarta Pusat,Tanah Abang
Jumbo Gallery - Papa Ho Hotel,Bogor Utara,"Papa Ho Hotel, Jl. KS. Tubun, Bogor Utara, Bogor",-6.5671723757,106.80942133,Jawa Barat,Bogor Kota,Bogor Utara
Nyi'cheap,Pondok Indah,"Jl. Tanah Ara I No. 6, Pondok Indah, Jakarta",-6.271394,106.774226,DKI Jakarta,Jakarta Selatan,Kebayoran Lama
Bromind Cafe,Sukmajaya,"Ruko Tran Depok Cyber Village, No. 26, Jl. Raya Kalimulya, Sukmajaya, Depok",-6.425672297699999,106.822620481,Jawa Barat,Depok,Cilodong
"Gulai Tikungan Blok M ""Batavia""",Sudirman,"fX Sudirman, Lantai F5, Eat & Eat, Jl. Jenderal Sudirman, Sudirman, Jakarta",-6.224798259,106.804008632,DKI Jakarta,Jakarta Pusat,Tanah Abang
#BASIS,Sawangan,"Jl. Raya Ciputat Parung No. 36B, Sawangan, Depok",-6.393038,106.743727,Jawa Barat,Depok,Bojongsari
Meja Makan Mas Kulin,Pancoran Mas,"Jl. Siliwangi No. 9A, Pancoran Mas, Depok 16431",-6.3997513548,106.822831369,Jawa Barat,Depok,Pancoran Mas
Miesop Medan Rasa Ibu,Muara Karang,"Jl. Muara Karang, Blok BB 5 Timur No. 6, Muara Karang, Jakarta",-6.116961,106.78366499999998,DKI Jakarta,Jakarta Utara,Penjaringan
Oseng dan Geprek Sewot,Karet,"Jl. Karet Sawah 2 No. 5 AA, Karet, Jakarta",-6.2219878711000005,106.818528771,DKI Jakarta,Jakarta Selatan,Setiabudi
Bakmi Raos,Ciledug,"Plaza Baru Ciledug, Food Court, Jl. HOS Cokroaminoto,, Tangerang, Ciledug, Jakarta",-6.2254345272,106.707889996,Banten,Tangerang Kota,Ciledug
Es Cendol Bandung,Mangga Dua,"Pasar Pagi Mangga Dua, Lantai 6, Food Court, Jl. Mangga Dua Raya, Mangga Dua, Jakarta",-6.135919829500001,106.82306706899999,DKI Jakarta,Jakarta Utara,Pademangan
Marive Coffee,Bekasi Timur,"Jl. Karang Satria No. 30, Bekasi Timur, Bekasi",-6.232644734500001,107.026408352,Jawa Barat,Bekasi Kota,Bekasi Timur
Kuo Wang,Pantai Indah Kapuk,"PIK Fresh Market, Pantai Indah Kapuk, Jakarta",-6.103299,106.741603,DKI Jakarta,Jakarta Utara,Penjaringan
Sushi Shu,Tebet,"Jl. Tebet Raya No. 66A, Tebet, Jakarta",-6.22846,106.855206,DKI Jakarta,Jakarta Selatan,Tebet
Sports Cafe,Makasar,"Jl. Halim Perdana Kusuma, Makasar, Jakarta",-6.2594239217,106.886693425,DKI Jakarta,Jakarta Timur,Makasar
RM Galung,Pluit,"Jl. Pluit Sakti No. 91, Pluit, Jakarta",-6.1222670854,106.788964457,DKI Jakarta,Jakarta Utara,Penjaringan
Tiga Saudara,Benda,"Bandara City Mall, Jl. Raya Perancis, Benda, Tangerang",-6.092527,106.691999,Banten,Tangerang Kabupaten,Kosambi
Mie Djoging,Dharmawangsa,"Jl. Panglima Polim IX No. 4A, Dharmawangsa, Jakarta Selatan",-6.249896,106.798604,DKI Jakarta,Jakarta Selatan,Kebayoran Baru
Xi De Li,Tanjung Duren,"Central Park, Lantai 2, Pasar Rame, Jl. Letjen S. Parman, Tanjung Duren, Jakarta",-6.1780456128,106.791286245,DKI Jakarta,Jakarta Barat,Grogol Petamburan
Sio 'n Co,Tambora,"Season City, Lantai 2, Jl. Prof. Dr. Latumenten No. 33, Tambora, Jakarta",-6.153131,106.794461,DKI Jakarta,Jakarta Barat,Grogol Petamburan
Waffle Couple,Makasar,"Jl. Cakrawala No. 29A, Makasar, Jakarta",-6.263403,106.8822,DKI Jakarta,Jakarta Timur,Makasar
Primadona Medan,Jatiuwung,"Ruko Asiatic, Jl. Permata Sari, Jatiuwung, Tangerang",-6.231823,106.58809,Banten,Tangerang Kabupaten,Curug
Ballicious Cake,Kebon Jeruk,"Jl. Musa No. 37, Kebon Jeruk, Jakarta",-6.20794,106.775629,DKI Jakarta,Jakarta Barat,Kebon Jeruk
Cita Rasa Bagan,Cengkareng,"Ruko Taman Palem Lestari, Blok A39 No. 196, Jl. Taman Palem Lestari, Cengkareng, Jakarta",-6.1311871623,106.716953516,DKI Jakarta,Jakarta Barat,Kalideres
Rumah Catering,Kuningan,"Sopo Del Tower, Food @Downtown, Lantai Semi Basement, Jl. Mega Kuningan Barat III, Kuningan, Jakarta",-6.2312495622,106.823938787,DKI Jakarta,Jakarta Selatan,Setiabudi
Mie Aceh Atakana,Pasar Minggu,"Pejaten Village, Lantai 3, Eat & Eat, Jl. Warung Jati Barat, Pasar Minggu, Jakarta",-6.280503,106.828874,DKI Jakarta,Jakarta Selatan,Pasar Minggu
Ayam Taliwang Lima Rasa,Karet,"Ciputra World, Lotte Shopping Avenue, Lantai 4, Food Avenue, Jl. Prof Dr Satrio, Karet, Jakarta",-6.2251208928,106.823792271,DKI Jakarta,Jakarta Selatan,Setiabudi
Japanese Ramen & Rice Bowl Ko Mie,Sudirman,"fX Sudirman, Lantai F5, Eat & Eat, Jl. Jenderal Sudirman, Sudirman, Jakarta",-6.2247505972,106.80393017799999,DKI Jakarta,Jakarta Pusat,Tanah Abang
Gili Bar & Lounge - Puri Denpasar Hotel,Kuningan,"Puri Denpasar Hotel, Jl. Denpasar Selatan No. 1, Kuningan, Jakarta",-6.2351507691,106.82643726399999,DKI Jakarta,Jakarta Selatan,Setiabudi
Rendang RK,Manggarai,"SKUTER Saharjo Kuliner Center, Jl. Dr. Saharjo No. 96 B, Manggarai, Jakarta",-6.21696,106.844278,DKI Jakarta,Jakarta Selatan,Setiabudi
Alloha Juice,Cijantung,"Depot Cijantung, Jl. Raya Pendidikan No. 1, Cijantung, Jakarta",-6.312463,106.862162,DKI Jakarta,Jakarta Timur,Pasar Rebo
Potato King,Sukmajaya,"Pesona Square Mall, Lantai 2, Jl. Ir H. Juanda No.99, Sukmajaya, Depok",-6.380294,106.844443,Jawa Barat,Depok,Sukma Jaya
Nad Age Drink,Cakung,"AEON Mall, Lantai 3, Gourmet Garden, Jl. Jakarta Garden City, Cakung, Jakarta",-6.1725706567,106.952366307,DKI Jakarta,Jakarta Timur,Cakung
DH Cafe & Resto,Jatinegara,"Jl. Cipinang Elok II AC-1, Jatinegara, Jakarta",-6.22288945,106.886285729,DKI Jakarta,Jakarta Timur,Jatinegara
SHABUKAMA,Senayan,"Jl. Terusan Hang Lekir 1 No. 2B, Senayan, Jakarta 12120",-6.2292091245000005,106.79569981899999,DKI Jakarta,Jakarta Pusat,Tanah Abang
Kopi Gayo,Kalibata,"Kalibata City Square, Tower H, Jl. Kalibata Raya No. 1, Kalibata, Jakarta",-6.257518,106.851597,DKI Jakarta,Jakarta Selatan,Pancoran
Fiesta Steak,Cibubur,"Trans Studio Mall Cibubur, Lantai Lower Ground, Jl. Alternatif Cibubur No. 230, Cibubur, Jakarta",-6.3756383893,106.902348808,Jawa Barat,Depok,Cimanggis
Fisi Coffee,Pondok Indah,"Jl. Haji Batong Raya No. 7B, Pondok Indah, Jakarta",-6.284805,106.790153,DKI Jakarta,Jakarta Selatan,Cilandak
Kopikeladi,Tanjung Priok,"Jl. Warakas VI No. 120, Tanjung Priok, Jakarta",-6.126054086,106.87772545899999,DKI Jakarta,Jakarta Utara,Tanjung Priok
Flou Co,Pasar Minggu,"Jl. Raya Pasar Minggu KM. 19 No. 3D, Pasar Minggu, Jakarta",-6.275683,106.845702,DKI Jakarta,Jakarta Selatan,Pasar Minggu
Bebeke Om Aris,Dharmawangsa,"Grand Wijaya Center, Jl. Wijaya 2, Dharmawangsa, Jakarta",-6.2542960913,106.79934527700001,DKI Jakarta,Jakarta Selatan,Kebayoran Baru
Kami Coolinary,Kemang,"Plaza Kemang 88, Lantai Ground, Jl. Kemang Raya, Kemang, Jakarta",-6.270526,106.815255,DKI Jakarta,Jakarta Selatan,Mampang Prapatan
Rangers Chicken,Beji,"Depok Town Square, Lantai 2, Food Square, Jl. Margonda Raya, Beji, Depok",-6.3725006116,106.832459159,Jawa Barat,Depok,Beji
Arumanis Cake's,Kemanggisan,"Jl. Kemanggisan Batusari Raya No. 1, Kemanggisan, Jakarta",-6.198555000000002,106.782334,DKI Jakarta,Jakarta Barat,Palmerah
Tian Tang,Bendungan Hilir,"Jl. Karet Pasar Baru Barat VII No. 1, Bendungan Hilir, Jakarta",-6.212815343099999,106.815035864,DKI Jakarta,Jakarta Pusat,Tanah Abang
Nine Tree Cafe,Mangga Besar,"Jl. Mangga Besar 8 No. 12 KL, Mangga Besar, Jakarta",-6.151016,106.825717,DKI Jakarta,Jakarta Barat,Tamansari
Steaking Good,Serpong Utara,"Ruko Pasar 8, Jl. Alam Utama, Serpong Utara, Tangerang",-6.2399510000000005,106.652483,Banten,Tangerang Selatan,Serpong Utara
Kopi Sabi,SCBD,"Energy Building, Jl. Jenderal Sudirman, SCBD, Jakarta",-6.225839,106.806494,DKI Jakarta,Jakarta Selatan,Kebayoran Baru
Unik Enak,Pluit,"Apartemen Greenbay Pluit Tower H, Pluit, Jakarta",-6.1079370000000015,106.77844,DKI Jakarta,Jakarta Utara,Penjaringan
Warung Dimsum 18,Bekasi Utara,"Summarecon Bekasi, Pasar Sinpasa, Blok F No. 026, Jl. Bulevar Selatan, Bekasi Utara, Bekasi",-6.229335,107.00074,Jawa Barat,Bekasi Kota,Bekasi Utara
Sate Maranggi Abah Uwong,Serpong,"Taman Jajan Gaul Anggrek, Jl. Anggrek Loka, Serpong, Tangerang",-6.29994,106.67097,Banten,Tangerang Selatan,Serpong
Kopi Sodara,Jatinegara,"Mall@Bassura City, Lantai 2, Eat & Eat, Jl. Jendral Basuki Rahmat No. 1, Jatinegara, Jakarta",-6.2235983799,106.878528781,DKI Jakarta,Jakarta Timur,Jatinegara
Shrimp 'n Chick,Kelapa Gading,"Mall Artha Gading, Lantai 2, West Food Court, Jl. Boulevard Artha Gading, Kelapa Gading, Jakarta 14240",-6.1464914235000006,106.891873441,DKI Jakarta,Jakarta Utara,Kelapa Gading
Siomay Leeloo,Serpong,"TerasKota, Lantai 1, Jl. Pahlawan Seribu, Serpong, Tangerang",-6.295562,106.667647,Banten,Tangerang Selatan,Serpong
Bakmie Medan Manalagi 2,Periuk,"Jl. Raya Taman Cibodas, Blok A4 No. 21, Periuk, Tangerang",-6.184097,106.599991,Banten,Tangerang Kota,Periuk
Kok Mangkok,Kelapa Gading,"Apartemen Gading Nias, Tower Grand Emerald, Jl. Pegangsaan Dua No. 3, Kelapa Gading, Jakarta 14250",-6.153466000000001,106.917829,DKI Jakarta,Jakarta Utara,Kelapa Gading
Drink Lab Coffee,Kebon Jeruk,"Jl. Raya Kb. Jeruk No. 21, Kebon Jeruk, Jakarta",-6.1980013062,106.76965322299999,DKI Jakarta,Jakarta Barat,Kebon Jeruk
Kedai Pawon Sae Express,SCBD,"Energy Building, Lantai B1, Jl. Jenderal Sudirman, SCBD, Jakarta",-6.226368,106.806386,DKI Jakarta,Jakarta Selatan,Kebayoran Baru
Ayam Goreng Fatmawati,Bogor Tengah,"Bogor Trade Mall, Lantai 3, Food Court, Jl. Ir H Juanda No. 68, Bogor Tengah, Bogor",-6.605050022,106.795240491,Jawa Barat,Bogor Kota,Bogor Tengah
R.asacafe,Pinang Ranti,"Jl. Raya Pondok Gede No. 2F, Pinang Ranti, Jakarta",-6.289795,106.890593,DKI Jakarta,Jakarta Timur,Makasar
Warung Gudeg Jogja,Pasar Baru,"Harco Pasar Baru, Lantai 3E, Food Court, Jl. H. Samanhudi No. 133, Pasar Baru, Jakarta",-6.1618,106.832469,DKI Jakarta,Jakarta Pusat,Sawah Besar
Mie Ayam Bakso Mas Andre Bejo,Kuningan,"Kantin Pojok Mega Kuningan, Jl. Kuningan Barat VIII, Kuningan, Jakarta",-6.2268507126,106.823803335,DKI Jakarta,Jakarta Selatan,Setiabudi
Red Kizmiz,Gunung Sahari,"Jl. Hidup Baru Raya No. 17A, Gunung Sahari, Jakarta",-6.1399990836,106.83571469,DKI Jakarta,Jakarta Utara,Pademangan
Salero Raso,Mustikajaya,"Jl. Raya Narogong KM 12.5 No. 168, Mustikajaya, Bekasi",-6.33975,106.978616,Jawa Barat,Bekasi Kota,Bantargebang
Kopi Siko - Hotel Dharmein,Melawai,"Hotel Dharmein, Jl. Sultan Hasanudin No. 20-22, Melawai, Jakarta",-6.2442892449,106.799629256,DKI Jakarta,Jakarta Selatan,Kebayoran Baru
Masakan Khas Manado Bunaken,Melawai,"Pasaraya Grande, Lantai Lower Ground, Dapuraya, Jl. Iskandarsyah II, Melawai, Jakarta",-6.245370426799999,106.802413053,DKI Jakarta,Jakarta Selatan,Kebayoran Baru
Cafe Gourmet,Tanah Abang,"Menara Merdeka Building, Lantai 2, Retail Area, Jl. Budi Kemuliaan 1 No. 2, Tanah Abang, Jakarta",-6.179526999999998,106.820744,DKI Jakarta,Jakarta Pusat,Gambir
Mie Kangkung Bazaar,Sunter,"Jl. Sunter Indah Raya, Blok HA1 No. 15, Sunter, Jakarta",-6.153679,106.877444,DKI Jakarta,Jakarta Utara,Tanjung Priok
O'Crepes,Bekasi Selatan,"Revo Town, Lantai Lower Ground, Jl. Jend. Ahmad Yani, Bekasi Selatan, Bekasi",-6.254093,106.989982,Jawa Barat,Bekasi Kota,Bekasi Selatan
Terrace Cafe - Amaris Hotel,Mangga Dua,"Amaris Hotel Mangga Dua Square, Jl. Gunung Sahari 1, Mangga Dua, Jakarta",-6.137603938200001,106.831794641,DKI Jakarta,Jakarta Utara,Pademangan
Kopi Kebersamaan,Meruya,"Jl. Joglo Raya No. 1, Meruya, Jakarta",-6.219855,106.742484,DKI Jakarta,Jakarta Barat,Kembangan
Kopi Benih,Pasar Minggu,"Jl. TB. Simatupang No. 25, Pasar Minggu, Jakarta",-6.302968,106.84206299999998,DKI Jakarta,Jakarta Selatan,Jagakarsa
Tosuka Coffee,Kemang,"Jl. Pejaten Barat No. 44, Kemang, Jakarta",-6.277602,106.826046,DKI Jakarta,Jakarta Selatan,Pasar Minggu
Ayam Bakar Pancasan,Larangan,"Jl. Masjid Darul Fallah, Larangan, Tangerang",-6.232819,106.751762,DKI Jakarta,Jakarta Selatan,Pesanggrahan
Gado - Gado Taman Sari,Kemayoran,"ITC Cempaka Mas, Lantai 5, Food Court, Jl. Letjen Suprapto, Kemayoran, Jakarta",-6.164780621699999,106.87710586899999,DKI Jakarta,Jakarta Pusat,Kemayoran
Ayam Gubrak,Mangga Dua,"ITC Mangga Dua, Jl. Mangga Dua Raya No. 5, Mangga Dua, Jakarta",-6.136959,106.823906,DKI Jakarta,Jakarta Pusat,Sawah Besar
Bakmi Sehat AHO,Cengkareng,"Mall Taman Palem, Food Court, Lantai 3, Jl. Raya Kamal, Cengkareng, Jakarta",-6.13772,106.73206299999998,DKI Jakarta,Jakarta Barat,Cengkareng
Gerai Minuman,Cempaka Putih,"Rumah Genjing, Jl. Pramuka Raya No. 56, Cempaka Putih, Jakarta",-6.1935275151999996,106.861806213,DKI Jakarta,Jakarta Pusat,Cempaka Putih
Chicken Day,Daan Mogot,"Ruko Citra Garden 7 Blok E3 No. 7 Daan Mogot, Jakarta",-6.146109,106.700494,DKI Jakarta,Jakarta Barat,Kalideres
Tasty Ground Cafe,Bekasi Timur,"Jl. HM. Joyo Martono No. 35, Bekasi Timur, Jakarta",-6.258534,107.020554,Jawa Barat,Bekasi Kota,Bekasi Timur
Martabak Elin Bandung,Pondok Indah,"Jl. Pinang Mas III/A 8, Pondok Indah, Jakarta",-6.265635,106.778986,DKI Jakarta,Jakarta Selatan,Kebayoran Lama
Roti Bakar President,Jatiuwung,"Permata Food Culinary, Jl. Taman Permata No. 301, Jatiuwung, Tangerang",-6.223631,106.587335,Banten,Tangerang Kabupaten,Curug
Kopi Lay,Bekasi Selatan,"Grand Metropolitan Mall Lt.3, Jl. KH. Noer Ali, Bekasi Selatan, Bekasi",-6.249271,106.984598,Jawa Barat,Bekasi Kota,Bekasi Selatan
"Ayam Kalasan ""Sularmi""",Dharmawangsa,"Loksem JS 32 - Pujasera Melawai, Jl. Melawai No.22, Dharmawangsa, Jakarta",-6.2473814725,106.80077254700001,DKI Jakarta,Jakarta Selatan,Kebayoran Baru
Waroeng Mas Semlo,Kelapa Gading,"Mall of Indonesia, Lantai Lower Ground, Pasar Moi Blok E1, Jl. Boulevard Barat Raya, Kelapa Gading, Jakarta",-6.151052,106.892079,DKI Jakarta,Jakarta Utara,Kelapa Gading
Aneka Nusantara,Pasar Minggu,"D'hara24 Foodcourt, Jl. Salihara No. 16, Pasar Minggu, Jakarta",-6.284487,106.837906,DKI Jakarta,Jakarta Selatan,Pasar Minggu
Luffy Rice Bowl,Pancoran Mas,"Jl. Kamboja No. 3, Pancoran Mas, Depok",-6.399386,106.824683,Jawa Barat,Depok,Pancoran Mas
Bakmi Gunsa,Slipi,"Brokoli Canteen, Jl. Palmerah Utara 1 number. 20, Slipi, Jakarta",-6.2019129999999985,106.79842,DKI Jakarta,Jakarta Barat,Palmerah
Kedai Soto Bu Nyai,Senen,"Jl. St. Senen, Kemayoran, Jakarta",-6.1704663252,106.842766217,DKI Jakarta,Jakarta Pusat,Kemayoran
Bakso Sapi'i,Matraman,"Jl. Utan Kayu Raya No. 111, Matraman, Jakarta",-6.1969379999999985,106.87333999999998,DKI Jakarta,Jakarta Timur,Matraman
Combrang,Thamrin,"Jl. M.H Thamrin No. 10, Thamrin, Jakarta",-6.184834,106.823782,DKI Jakarta,Jakarta Pusat,Menteng
Pecel Pincuk Mabes,Bekasi Utara,"Jl. Ujung Harapan No. 10, Bekasi Utara, Bekasi",-6.1895863346,107.00791519100001,Jawa Barat,Bekasi Kabupaten,Babelan
Nasi Goreng Trisno,Senayan,"Kuliner GBK, Pintu 7, Jl Stadion Senayan, Senayan, Jakarta",-6.215476126,106.80502519,DKI Jakarta,Jakarta Pusat,Tanah Abang
Bakso Wagyu Mas Brandon,Sunter,"Jl. Agung Tengah 3, Blok F No. 5, Sunter, Jakarta",-6.144191645499999,106.86775133,DKI Jakarta,Jakarta Utara,Tanjung Priok
Nasi Pindang Ikan Patin & Ayam Goreng Serundeng Ibu Ani Sekas Sari,Gambir,"Lenggang Jakarta, Blok C-29, Jl. Medan Merdeka Selatan, Gambir, Jakarta",-6.179823000000002,106.825273,DKI Jakarta,Jakarta Pusat,Gambir
Bakmi Jowo Rodjo Roso,Cimanggis,"Jl. Akses Ui No. 28, Cimanggis, Depok",-6.355489,106.851292,Jawa Barat,Depok,Cimanggis
Chicken Kribo,Klender,"Buaran Mall, Lantai Ground, Jl. Raden Inten 2, Klender, Jakarta",-6.217621274500001,106.924138069,DKI Jakarta,Jakarta Timur,Duren Sawit
Ob Woon,Cibubur,"Cibubur Junction, Lantai Ground, Jl. Jambore No. 1, Cibubur, Jakarta",-6.3698313029,106.89430486399999,DKI Jakarta,Jakarta Timur,Ciracas
Dadali Coffee Shop,Pondok Aren,"Jl. Jambu Blok FA 3, Pondok Aren, Tangerang",-6.2739129999999985,106.726317,Banten,Tangerang Selatan,Ciputat Timur
D'Jubel Steak,Tanjung Duren,"JL. Taman Daan Mogot Raya No. 32, Tanjung Duren, Jakarta",-6.1691753222,106.783232912,DKI Jakarta,Jakarta Barat,Grogol Petamburan
The Bar,Jatinegara,"Mall@Bassura City, Lantai 2, Eat & Eat, Jl. Jendral Basuki Rahmat No. 1, Jatinegara, Jakarta",-6.2236510413,106.878584437,DKI Jakarta,Jakarta Timur,Jatinegara
Gado Gado Lontong,Puri Indah,"Loksem Puri Kencana, Jl. Puri Kencana No. J1/N, Puri Indah, Jakarta",-6.191047948,106.745033562,DKI Jakarta,Jakarta Barat,Kembangan
Mie Ratu Kalimantan,Pulo Gadung,"Jl. Drompol No. 15, Pulo Gadung, Jakarta",-6.186763,106.88499,DKI Jakarta,Jakarta Timur,Pulogadung
Palas Kopi,Beji,"Jl. Pala No. 2, Beji, Depok",-6.377422,106.826822,Jawa Barat,Depok,Beji
Clara's Cake,Kebon Jeruk,"Ruko Graha Mas, Blok C-7, Jl Perjuangan Raya, Kebon Jeruk, Jakarta",-6.190835,106.760765,DKI Jakarta,Jakarta Barat,Kebon Jeruk
XXI Cafe,Cijantung,"Mall Graha Cijantung, Jl. Pendidikan I, Cijantung, Jakarta",-6.312721,106.861875,DKI Jakarta,Jakarta Timur,Pasar Rebo
Sop Buntut Bistro,Manggarai,"Pasaraya Manggarai, Lantai Basement, DAPURAYA, Jl. Sultan Agung No. 1, Manggarai, Jakarta",-6.2094232671,106.847026571,DKI Jakarta,Jakarta Selatan,Setiabudi
Seafood R. Husni,Dharmawangsa,"Loksem JS 32 - Pujasera Melawai, Jl. Melawai No. 22, Melawai, Jakarta",-6.2475357835,106.800769195,DKI Jakarta,Jakarta Selatan,Kebayoran Baru
Cosmo Bar N Grill,Tanah Abang,"Cosmo Mansion Apartment, Lantai 10, Jl. Tlk. Betung, Tanah Abang, Jakarta",-6.194605,106.81734,DKI Jakarta,Jakarta Pusat,Tanah Abang
Inti Kafe,Pondok Aren,"PHX Bintaro, Jl. Senayan Utama, Blok HJ 1 No. 1A, Pondok Aren, Tangerang",-6.2814830000000015,106.708292,Banten,Tangerang Selatan,Pondok Aren
Soto Srikaton,Cibodas,"Ruko Riviera, Jl. Palem Raya Selatan, Cibodas, Tangerang",-6.220332,106.611214,Banten,Tangerang Kabupaten,Kelapa Dua
Warung D'S Bakso Pempek,Cibubur,"Griya Kuliner Omah Opah, Jl. Lapangan Tembak, Blok B1 No. 8, Cibubur, Jakarta",-6.352736202899999,106.886758469,DKI Jakarta,Jakarta Timur,Ciracas
Cannavaro Satay & Steak,Pinang Ranti,"Tamini Square, Lantai 2, Food Court, Jl. Taman Mini 1, Pinang Ranti, Jakarta",-6.290995329299999,106.881765537,DKI Jakarta,Jakarta Timur,Makasar
RM Sepakat,Matraman,"Jl. Kramat Asam No.1, Matraman, Jakarta",-6.204401,106.872537,DKI Jakarta,Jakarta Timur,Matraman
Dapoer Seketjo,Melawai,"Jl. Sungai Sambas VI No. 3B, Melawai, Jakarta",-6.2468215534,106.796929277,DKI Jakarta,Jakarta Selatan,Kebayoran Baru
Joker Cafe,Kelapa Gading,"Jl. Gading Batavia, Blok LC 10 Kelapa Gading, Jakarta",-6.152528,106.89795,DKI Jakarta,Jakarta Utara,Kelapa Gading
Mie Ayam Bakso & Ayam Bakar Spesial Nasir,Gambir,"Lenggang Jakarta, Blok C-36, Jl. Medan Merdeka Selatan, Gambir, Jakarta",-6.179681,106.82493,DKI Jakarta,Jakarta Pusat,Gambir
Aneka Juice,Kuningan,"Jl. Kuningan Barat VIII, Kuningan, Jakarta",-6.226922,106.823867,DKI Jakarta,Jakarta Selatan,Setiabudi
Ayam Jontor,Klender,"Waroeng PTB, Jl. Lingkar Duren Sawit, Blok L1 No. 1, Klender, Jakarta",-6.2240546676,106.913279481,DKI Jakarta,Jakarta Timur,Duren Sawit
Kedai Tuan Rumah,Pondok Indah,"Jl. H. Pentul II No. 9, Pondok Indah, Jakarta",-6.261916,106.78973700000002,DKI Jakarta,Jakarta Selatan,Kebayoran Baru
Soto Sedap Boyolali,Pasar Minggu,"Jl. Tanjung Barat lama, Pasar Minggu, Jakarta",-6.30248,106.841103,DKI Jakarta,Jakarta Selatan,Jagakarsa
Ayam De Geprek,Palmerah,"Jl. Rawa Belong No. 23, Palmerah, Jakarta",-6.2048122484000015,106.78284198,DKI Jakarta,Jakarta Barat,Kebon Jeruk
Sop & Bakmi Paton,Bogor Barat,"Food Court Pulen Kitchens, Jl. Raya Semplak No. 348, Bogor Barat, Bogor",-6.547729,106.760553,Jawa Barat,Bogor Kota,Bogor Barat
Doamak,Larangan,"Jl. H. Muchtar Raya No. 78, Larangan, Tangerang",-6.22495,106.737555,Banten,Tangerang Kota,Larangan
Sebudi Kopi,Serpong Utara,"Pasar 8, Jl. Alam Utama No.35, Serpong Utara, Tangerang",-6.2397715202,106.651977337,Banten,Tangerang Selatan,Serpong Utara
Soto Betawi Hj. Kun,Thamrin,"Kawasan Kuliner BSM, Jl. MH Thamrin, Thamrin, Jakarta",-6.182155000000002,106.823901,DKI Jakarta,Jakarta Pusat,Gambir
Sampurasun,Bekasi Timur,"GP Mall, Lantai Ground, Jl. HM. Joyomartono, Bekasi Timur, Bekasi",-6.2594919102999995,107.020391821,Jawa Barat,Bekasi Kota,Bekasi Timur
Es Campur Medan Bang Yusril,Kuningan,"Food Colony, Jl. HR Rasuna Said, Kuningan, Jakarta",-6.2212260000000015,106.833248,DKI Jakarta,Jakarta Selatan,Setiabudi
Nasi Goreng Kebuli Baba Ali,Cibodas,"Jl. Empu Panuluh Raya No. 44, Cibodas, Tangerang",-6.2137400000000005,106.597898,Banten,Tangerang Kabupaten,Kelapa Dua
Bakso Pukul Kota Malang,Pinang Ranti,"Tamini Square, Lantai 2, Food Court, Jl. Taman Mini 1, Pinang Ranti, Jakarta",-6.29108,106.881583,DKI Jakarta,Jakarta Timur,Makasar
Warung Nasi Pak Kumis,Setiabudi,"Loksem JS 05 - Jl. Denpasar, Jl. Genteng Ijo No. 3B, Setiabudi, Jakarta",-6.2180239055,106.829645521,DKI Jakarta,Jakarta Selatan,Setiabudi
Unyu Unyu 2011,Kec. Tangerang,"Tangerang City Business Park, Food Arcade, Jl. Jendral Sudirman, Kec. Tangerang, Tangerang",-6.193066,106.635268,Banten,Tangerang Kota,Tangerang
Indotaste Authentic,Pluit,"Jl. Taman Pluit Kencana Selatan No. 37, Pluit, Jakarta",-6.1206816044000005,106.789851933,DKI Jakarta,Jakarta Utara,Penjaringan
Ganthari Ayam Bakar,Senayan,"Kuliner GBK, Pintu 7, Jl Stadion Senayan, Senayan, Jakarta",-6.2152791425,106.80615708200001,DKI Jakarta,Jakarta Pusat,Tanah Abang
Jamur Krenyess & Molen Imoet,Thamrin,"Kawasan Kuliner BSM, Jl. MH Thamrin, Thamrin, Jakarta",-6.1845300000000005,106.82475,DKI Jakarta,Jakarta Pusat,Menteng
Warkop 1/3 Sibuk,Cimanggis,"Jl. Akses UI No. 25, Cimanggis, Depok",-6.3544959209000025,106.839895919,Jawa Barat,Depok,Cimanggis
Teras Sawah,Bekasi Selatan,"Bekasi Cyber Park, Lantai 2, de Kincir, Jl. KH Noer Ali, Bekasi Selatan, Bekasi",-6.2468335516,106.99160669,Jawa Barat,Bekasi Kota,Bekasi Selatan
Sin9kawan9,Tanah Abang,"Metro Tanah Abang, Lantai 6, Food Gallery, Jl. KH Mas Mansyur, Tanah Abang, Jakarta",-6.187386,106.816296,DKI Jakarta,Jakarta Pusat,Tanah Abang
Mie JB76,Jelambar,"Jl. Kusuma 1A, Blok B4 No. 21, Jelambar, Jakarta",-6.150411,106.779753,DKI Jakarta,Jakarta Barat,Grogol Petamburan
Kaibarra Coffee,Cipayung,"Jl. Mandor Hasan No. 26, Cipayung, Jakarta",-6.323549,106.894599,DKI Jakarta,Jakarta Timur,Cipayung
Sambal Setan Lambe Turah,Matraman,"Jl. Matraman Raya No. 143, Matraman, Jakarta",-6.20929,106.859801,DKI Jakarta,Jakarta Timur,Matraman
Sekri,Thamrin,"Kawasan Kuliner BSM, Jl. MH Thamrin, Thamrin, Jakarta",-6.184545,106.824586,DKI Jakarta,Jakarta Pusat,Menteng
Madame Cafe & Resto,Bekasi Timur,"GP Mall, Upper Ground, Jl. HM. Joyomartono, Bekasi Timur, Bekasi",-6.2596675474,107.020783759,Jawa Barat,Bekasi Kota,Bekasi Timur
Bakso Gepeng Si Kumis,Medan Satria,"Jl. Boulevard Hijau Blok B8 No. 43, Medan Satria, Bekasi",-6.186104,106.98052,Jawa Barat,Bekasi Kota,Medan Satria
Bakso Royal,Tomang,"Jl. Gelong Baru Tengah No. 29, Tomang, Jakarta",-6.175744,106.796506,DKI Jakarta,Jakarta Barat,Grogol Petamburan
Casa by Rena's,Fatmawati,"Jl. Abdul Majid Raya No. 41, Fatmawati, Jakarta",-6.2665419999999985,106.806021,DKI Jakarta,Jakarta Selatan,Cilandak
Siomay Dago,Serpong Utara,"Summarecon Mall Serpong, Lantai 2, Souq Pasar Malam, Jl. Gading Serpong Boulevard, Serpong Utara, Tangerang",-6.24164,106.627983,Banten,Tangerang Kabupaten,Kelapa Dua
Resep Warisan,Kelapa Gading,"Rukan French Walk, Blok F/23, Jl. Boulevard Barat Raya, Kelapa Gading, Jakarta",-6.149243,106.89067,DKI Jakarta,Jakarta Utara,Kelapa Gading
Famous Blessing Bakery,Meruya,"Jl. Joglo Raya No. 32E, Meruya, Jakarta",-6.2178510000000005,106.758508,DKI Jakarta,Jakarta Barat,Kembangan
Bakso Sapi Rudi,Gunung Sahari,"Jl. Rajawali Selatan I No. 54A, Gunung Sahari, Jakarta",-6.1447059999999984,106.8375,DKI Jakarta,Jakarta Pusat,Sawah Besar
Nyucu,Jatiuwung,"Permata Culinary, Jl. Taman Permata No. 301, Jatiuwung, Tangerang",-6.223632,106.587808,Banten,Tangerang Kabupaten,Curug
Bakso Malang,Kuningan,"Epicentrum Walk, Lantai 1, Eat & Eat, Jl. HR. Rasuna Said, Kuningan, Jakarta",-6.2187839999999985,106.835064,DKI Jakarta,Jakarta Selatan,Setiabudi
Soto Betawi Supri,Dharmawangsa,"Loksem JS 32 - Pujasera Melawai, Jl. Melawai No.22, Melawai, Jakarta",-6.2475814435000006,106.800752095,DKI Jakarta,Jakarta Selatan,Kebayoran Baru
Warung DeBiring,Bogor Timur,"Jl. Ciheuleut No. 5, Bogor Timur, Bogor",-6.604067999999999,106.813303,Jawa Barat,Bogor Kota,Bogor Timur
Lv Bread,Cengkareng,"Jl. Taman Palem Lestari Blok A37 No.10, Cengkareng, Jakarta",-6.132626,106.718248,DKI Jakarta,Jakarta Barat,Kalideres
Nasi Goreng Arinda Jaya,Ciputat,"Jl. Oscar Raya No.1, Ciputat, Tangerang",-6.325476,106.729421,Banten,Tangerang Selatan,Pamulang
Istana Sop,Neglasari,"Jl. Pembangunan 3, Neglasari, Tangerang",-6.163193,106.64393,Banten,Tangerang Kota,Neglasari
Ciak Lah,Cengkareng,"Jl. Taman Palem Lestari, Blok A10 No.8, Cengkareng, Jakarta",-6.1360758398,106.723793819,DKI Jakarta,Jakarta Barat,Cengkareng
Uncle Yolk,Pluit,"Executive Food Court Landmark Pluit, Jl. Pluit Selatan, Pluit, Jakarta",-6.1242725989,106.799465306,DKI Jakarta,Jakarta Utara,Penjaringan
Roti Mas,Kec. Tangerang,"Jl. Nyi Mas Melati No. 3A, Kec. Tangerang, Tangerang",-6.171878658200001,106.632525622,Banten,Tangerang Kota,Tangerang
Empal Gentong Cirebon,Tanah Abang,"Pasar Tanah Abang, Blok A, Lantai 8, Food Court, Jl. KH Mas Mansyur, Tanah Abang, Jakarta",-6.187425,106.814724,DKI Jakarta,Jakarta Pusat,Tanah Abang
Dadap Kuring,Grogol,"Mall Ciputra, Lantai 6, Food Library, Jl. Arteri S. Parman, Grogol, Jakarta",-6.168347,106.786699,DKI Jakarta,Jakarta Barat,Grogol Petamburan
Sop & Soto Djakarta Pak Amin,Cinere,"Jl. Bukit Cinere, Cinere, Depok",-6.3397918781,106.793343834,Jawa Barat,Depok,Cinere
Sroto Asli Sokaraja Purwokerto,Gandaria,"Gandaria City, Lantai 2, Eat & Eat, Jl Sultan Iskandar Muda, Gandaria, Jakarta",-6.244712,106.783566,DKI Jakarta,Jakarta Selatan,Kebayoran Lama
SOP BUNTUT BABEH,Bogor Utara,"Jl. Jend. Ahmad Yani Blok PR 1 No. 1, Bogor Utara, Bogor",-6.5686160000000005,106.808469,Jawa Barat,Bogor Kota,Bogor Utara
Age Bento,Cengkareng,"Mall Taman Palem, Lantai Lower Ground, Jl. Raya Kamal, Cengkareng, Jakarta",-6.1398120726,106.731651686,DKI Jakarta,Jakarta Barat,Cengkareng
Rizki Aldo,Roxy,"ITC Roxy Mas, Lantai 4, Food District, Jl. K. H. Hasyim Ashari, Roxy, Jakarta",-6.16654,106.80298799999998,DKI Jakarta,Jakarta Pusat,Gambir
Honey & Bunny's,Mangga Besar,"LTC Glodok, Lantai 2, Food Court, Jl. Hayam Wuruk No. 127, Hayam Wuruk, Jakarta",-6.145899,106.816851,DKI Jakarta,Jakarta Barat,Tamansari
Ayam Penyet Joss,Mustikajaya,"Ruko Mutiara Gading Timur, Blok B15 No. 38, Jl. Mutiara Gading Timur, Mustikajaya, Bekasi",-6.284098,107.028093,Jawa Barat,Bekasi Kota,Mustikajaya
Chicago Popcorn,SCBD,"Pacific Place Mall, Lantai Basement 1, Jl. Jenderal Sudirman, SCBD, Jakarta",-6.2242253171,106.80992759700001,DKI Jakarta,Jakarta Selatan,Kebayoran Baru
Riso Piatto,Cengkareng,"Pujasera Taman Palem Lestari, Jl. H Mahmud, Cengkareng, Jakarta",-6.130724,106.703572,DKI Jakarta,Jakarta Barat,Kalideres
Ruang Coffee,Sukmajaya,"Jl. Kemakmuran No. 2A, Sukmajaya, Depok",-6.397131,106.836484,Jawa Barat,Depok,Sukma Jaya
Kopitiam Go!,Thamrin,"Grand Indonesia Mall, East Mall, Lantai Lower Ground, Jl. M.H. Thamrin 1, Thamrin, Jakarta",-6.195183,106.819992,DKI Jakarta,Jakarta Pusat,Tanah Abang
Teh Tong Tji,Senen,"Plaza Atrium, Lantai 4, Jl. Senen Raya No. 135, Senen, Jakarta",-6.1774286205,106.841349341,DKI Jakarta,Jakarta Pusat,Senen
RM. Sate Solo,Kuningan,"RPI Food Court, Jl. Mesjid Darul Muqorrobin Blok A No. 33A, Kuningan, Jakarta",-6.2283089999999985,106.833936,DKI Jakarta,Jakarta Selatan,Setiabudi
Bakso Ajo,Cawang,"Pusat Grosir Cililitan, Lantai Ground, Halte Walk, Jl. Mayjen Sutoyo No. 76, Cawang, Jakarta",-6.262324,106.865782,DKI Jakarta,Jakarta Timur,Kramatjati
Ayam Bakar Gorontalo,Cimanggis,"Jl. Pekapuran, Cimanggis, Depok",-6.3937579551,106.87419701299999,Jawa Barat,Depok,Tapos
Duran Duren,Sukmajaya,"Ruko Pesona Mungil, Jl. K.H.M. Yusuf Raya No. A5, Sukmajaya, Depok",-6.381469999999998,106.842188,Jawa Barat,Depok,Sukma Jaya
Waroeng Timbel,Jatinegara,"City Plaza Jatinegara, Lantai 2, Food Connection, Jl. Matraman Raya No. 173, Jatinegara, Jakarta",-6.2140072475,106.864265129,DKI Jakarta,Jakarta Timur,Jatinegara
Mega Matra Restaurant & Lounge - Mega Matra Hotel,Matraman,"Mega Matra Hotel, Jl. Matraman Raya No. 115, Matraman, Jakarta",-6.206791118300001,106.859075054,DKI Jakarta,Jakarta Timur,Matraman
Ayam Negara,Pondok Indah,"Jl. Karya Utama No. 15, Pondok Indah, Jakarta Selatan",-6.2591892944000005,106.793285161,DKI Jakarta,Jakarta Selatan,Kebayoran Baru
Exco Coffee & Resto,Ciputat,"Jl. R.E. Martadinata, Blok B No. 38, Ciputat, Tangerang",-6.324198,106.746376,Banten,Tangerang Selatan,Ciputat
A Siang,Cengkareng,"Ruko Taman Palem Lestari, Blok B16 No. 9, Jl. Taman Palem Lestari, Cengkareng, Jakarta",-6.139208999999999,106.725797,DKI Jakarta,Jakarta Barat,Cengkareng
Restoran Hopeng,Gajah Mada,"Jl. Gajah Mada No.213A, Gajah Mada, Jakarta",-6.144788,106.815275,DKI Jakarta,Jakarta Barat,Tamansari
Bakso Rusuk Juragan,Kota,"Jl. Pinangsia I No. 55D, Kota, Jakarta",-6.14009,106.816913,DKI Jakarta,Jakarta Barat,Tamansari
Coffee (?) Tanda Tanya,Dharmawangsa,"Jl. Prapanca Raya No. 131, Dharmawangsa, Jakarta",-6.2477203790999996,106.806427717,DKI Jakarta,Jakarta Selatan,Kebayoran Baru
Pempek 09,Beji,"Jl. Margonda Raya No. 420, Beji, Depok",-6.3673542414,106.83426126799999,Jawa Barat,Depok,Beji
Rafita's Cake,Tanah Sareal,"Ruko Graha STIO, Jl. KH. Sholeh Iskandar No. B2, Tanah Sareal, Bogor",-6.560739,106.791172,Jawa Barat,Bogor Kota,Tanah Sereal
Sop Duren 88,Kebon Jeruk,"JAWARA Food Court, Jl. Meruya Ilir Raya No. 25, Kebon Jeruk, Jakarta",-6.198118,106.758933,DKI Jakarta,Jakarta Barat,Kembangan
Toko Kue JUALKUEENAK,Kebayoran Lama,"Jl. M. Saidi Raya No. 52, Kebayoran Lama, Jakarta",-6.2464892676999995,106.756793372,DKI Jakarta,Jakarta Selatan,Pesanggrahan
Tiga Sisi Coffee,Tanjung Duren,"JAWARA Food Court, Jl. Meruya Ilir Raya No. 25, Kebon Jeruk, Jakarta",-6.1755039735000015,106.783970519,DKI Jakarta,Jakarta Barat,Grogol Petamburan
Boss Ayam Geprek,Thamrin,"Sarinah Building, Lantai Lower Ground, M Food Court, Jl. MH Thamrin, Thamrin, Jakarta",-6.187895,106.823775,DKI Jakarta,Jakarta Pusat,Menteng
Soto Kikil Cak Bagus,Larangan,"Jl. Masjid Darul Fallah No. 9, Larangan, Tangerang",-6.232139749,106.751423656,DKI Jakarta,Jakarta Selatan,Pesanggrahan
Piggy Ball,Kota,"Pancoran Chinatown Point, Lantai 2, Jl. Pancoran No. 42A, Kota, Jakarta",-6.140827,106.81321,DKI Jakarta,Jakarta Barat,Tamansari
Soto Susu Laiker,Bekasi Utara,"Summarecon Mall Bekasi, Lantai 3, Food Temptation, Jl. Ahmad Yani, Bekasi Utara, Bekasi",-6.2254691903,107.001890949,Jawa Barat,Bekasi Kota,Bekasi Utara
Nasi Goreng Kampung & Soto Ayam Sudi Mampir,Gambir,"Lenggang Jakarta, Blok B-14, Jl. Medan Merdeka Selatan, Gambir, Jakarta",-6.180111,106.825214,DKI Jakarta,Jakarta Pusat,Gambir
Warung Mammet,Ciputat Timur,"Jl. Kertamukti No. 12, Ciputat Timur, Tangerang",-6.306994,106.759077,Banten,Tangerang Selatan,Ciputat Timur
Babrex,Sunter,"Jl. Agung Tengah 4, Sunter, Jakarta",-6.1444230000000015,106.86744,DKI Jakarta,Jakarta Utara,Tanjung Priok
Pempek Palembang Wong Kito Galo,Bekasi Selatan,"Mega Bekasi Hypermall, Lantai 3, Foodwalk, Jl. Jenderal Ahmad Yani, Bekasi Selatan, Bekasi",-6.249905,106.992772,Jawa Barat,Bekasi Kota,Bekasi Selatan
Cafe Endang,Roxy,"ITC Roxy Mas, Lantai 4, Food Court, Jl. KH Hasyim Ashari, Roxy, Jakarta",-6.167431,106.802863,DKI Jakarta,Jakarta Pusat,Gambir
Ayam Geprek Blenger,Senen,"Jl. Baladewa Kiri I, Senen, Jakarta",-6.175536,106.85184,DKI Jakarta,Jakarta Pusat,Johar Baru
PLANET Club,Kuningan,"Bellagio Boutique Mall, Lantai Upper Ground, Jl. Lingkar Mega Kuningan, Kuningan, Jakarta",-6.2278479395,106.824096366,DKI Jakarta,Jakarta Selatan,Setiabudi
Bakeyard,Hayam Wuruk,"Jl. Hayam Wuruk No.28, Hayam Wuruk, Jakarta",-6.1610695648,106.819640211,DKI Jakarta,Jakarta Pusat,Gambir
Waroeng Baku Dapa,Kuningan,"Mall Ambassador, Lantai 4, Food District, Jl. Prof Dr Satrio, Kuningan, Jakarta",-6.2240326698000015,106.82689055799999,DKI Jakarta,Jakarta Selatan,Setiabudi
Es Pisang Ijo,Pasar Minggu,"Pejaten Village, Lantai 3, Eat & Eat, Jl. Warung Jati Barat, Pasar Minggu, Jakarta",-6.28078,106.828669,DKI Jakarta,Jakarta Selatan,Pasar Minggu
Nong's Dessert,Kota,"Pancoran Chinatown Point, Lantai 2, Jl. Pancoran No. 42A, Kota, Jakarta",-6.140805,106.813178,DKI Jakarta,Jakarta Barat,Tamansari
Mie Aceh Rempah Gampong,Kebon Jeruk,"JAWARA Food Court, Jl. Meruya Ilir Raya No. 25, Kebon Jeruk, Jakarta",-6.198805264600001,106.75882715700001,DKI Jakarta,Jakarta Barat,Kembangan
Kedai Ketjil,Cibubur,"Griya Kuliner Omah Opah, Jl. Lapangan Tembak, Blok B1 No. 8, Cibubur, Jakarta",-6.3526702259000025,106.88675578600001,DKI Jakarta,Jakarta Timur,Ciracas
Otayakimu,Beji,"Depok Town Square, Lantai 2, Food Square, Jl. Margonda Raya, Beji, Depok",-6.372446299299999,106.832446754,Jawa Barat,Depok,Beji
Chicken Busta,Kec. Tangerang,"Jl. Maulana Yusuf, Kec. Tangerang, Tangerang",-6.189408,106.635682,Banten,Tangerang Kota,Tangerang
Ayam Goreng Borobudur,Sunter,"Food Market Sunter, Jl. Danau Sunter Utara Blok A3 No. 15, Sunter, Jakarta",-6.1407501270000004,106.857723891,DKI Jakarta,Jakarta Utara,Tanjung Priok
MM Resto,Kelapa Gading,"Jl. Kelapa Kopyor Raya, Blok D1 No. 12, Kelapa Gading, Jakarta",-6.17001,106.902548,DKI Jakarta,Jakarta Utara,Kelapa Gading
Kantin Ny. Titin,Mangga Besar,"LTC Glodok, Lantai 2, Food Court, Jl. Hayam Wuruk No. 127, Hayam Wuruk, Jakarta",-6.145869,106.817083,DKI Jakarta,Jakarta Barat,Tamansari
Fudgy Bro,Bintaro,"Jl. Garuda, Bintaro, Jakarta",-6.268627,106.756677,DKI Jakarta,Jakarta Selatan,Pesanggrahan
Mie Godog Jawa & Nasi Goreng Jawa,Melawai,"Pasaraya Grande, Lantai Lower Ground, Dapuraya, Jl. Iskandarsyah II, Melawai, Jakarta",-6.245225780499999,106.802569292,DKI Jakarta,Jakarta Selatan,Kebayoran Baru
Tuna Boops,Bekasi Selatan,"Rukan Grand Galaxy City, Blok RGB No. 99 Jl. Boulevard Raya Barat, Bekasi Selatan, Bekasi",-6.273742,106.974135,Jawa Barat,Bekasi Kota,Bekasi Selatan
Depot Minuman,Mangga Dua,"Pasar Pagi Mangga Dua, Lantai 6, Food Court, Jl. Mangga Dua Raya, Mangga Dua, Jakarta",-6.1357114823000005,106.823017112,DKI Jakarta,Jakarta Utara,Pademangan
VIN'S Cafe,Koja,"Jl. Buritan No. 474, Koja, Jakarta",-6.12182,106.900703,DKI Jakarta,Jakarta Utara,Koja
D'Shabu Grill,Sukmajaya,"Jl. Kejayaan, Sukmajaya, Depok",-6.393801,106.851613,Jawa Barat,Depok,Sukma Jaya
D'Nangroe,Kemang,"The Green Corner, Jl. Pejaten Barat No. 71, Kemang, Jakarta",-6.277503,106.827679,DKI Jakarta,Jakarta Selatan,Pasar Minggu
ROX Kopi,Cimanggis,"Jl. Nangka, Cimanggis, Depok",-6.4016199999999985,106.873968,Jawa Barat,Depok,Tapos
MyCafe,Pasar Baru,"Jl. Samanhudi No. 18D, Pasar Baru, Jakarta",-6.1603900000000005,106.834975,DKI Jakarta,Jakarta Pusat,Sawah Besar
Juragan Takoyaki,Kuningan,"Food Colony, Jl. HR Rasuna Said, Kuningan, Jakarta",-6.2217325624,106.83342643,DKI Jakarta,Jakarta Selatan,Setiabudi
Ceria Corner,Cinere,"Cinere Mall, Lantai Basement, Food Court, Jl. Cinere Raya No. 1, Cinere, Depok",-6.324266657000001,106.783917211,Jawa Barat,Depok,Cinere
Masakan Padang Bintang,Thamrin,"Kawasan Kuliner BSM, Jl. MH Thamrin, Thamrin, Jakarta",-6.184512000000002,106.823614,DKI Jakarta,Jakarta Pusat,Menteng
Gan's Coffee,Tanah Sareal,"Jl. KH. Sholeh Iskandar III No. 93, Tanah Sareal, Bogor",-6.548726,106.77438,Jawa Barat,Bogor Kota,Tanah Sereal
Kantin Bu Asep,SCBD,"Plaza Bapindo, Lantai Ground, MM Food, Jl. Jenderal Sudirman, SCBD, Jakarta",-6.2253712004,106.8083461,DKI Jakarta,Jakarta Selatan,Kebayoran Baru
Buono Cafe,Bogor Utara,"Ruko Hollywood, Blok D, Jl. Pangeran Sogiri No. 2-3, Bogor Utara, Bogor",-6.555269,106.824184,Jawa Barat,Bogor Kota,Bogor Utara
Bakmi Pertiwi,Penjaringan,"Jl. Kusuma Blok D9A No. 11, Penjaringan, Jakarta",-6.131245,106.792935,DKI Jakarta,Jakarta Utara,Penjaringan
Squid Stop,Jatiuwung,"Permata Culinary, Jl. Taman Permata No. 301, Jatiuwung, Tangerang",-6.2236379999999984,106.587866,Banten,Tangerang Kabupaten,Curug
Soto Mie Kang Jamal,Sawah Besar,"Jl. Karang Anyar A No. 31, Sawah Besar, Jakarta",-6.1567684664,106.831372194,DKI Jakarta,Jakarta Pusat,Sawah Besar
Dapoer Kanjeng Mamih,Duren Sawit,"Jl. Kelapa Sawit Raya Blok H No. 1, Duren Sawit, Jakarta",-6.244813,106.925773,DKI Jakarta,Jakarta Timur,Duren Sawit
SEGO SAMBAL HooHaaH!,Serpong,"Ruko Niaga Griya Loka Blok RE 1/ 4, BSD City Sektor 1.2, Serpong, Tangerang",-6.305561,106.679405,Banten,Tangerang Selatan,Serpong
Crepes Bite,Tambora,"Season City, Lantai 2, Jl. Prof. Dr. Latumenten No. 33, Tambora, Jakarta",-6.15364,106.796456,DKI Jakarta,Jakarta Barat,Tambora
Delicio,Kebon Jeruk,"AKR Tower, Jl. Panjang No. 5, Kebon Jeruk, Jakarta",-6.191255,106.76779,DKI Jakarta,Jakarta Barat,Kebon Jeruk
Panca Rasa,Serpong,"ITC BSD, Lantai 2, Food Court, Jl. Pahlawan Seribu, Serpong, Tangerang",-6.2861910000000005,106.664295,Banten,Tangerang Selatan,Serpong
LeeLoo Siomay,Kebayoran Lama,"ITC Permata Hijau, Lantai Basement, Jl. Letjen Soepeno, Kebayoran Lama, Jakarta",-6.220786,106.783419,DKI Jakarta,Jakarta Selatan,Kebayoran Lama
Pat Thai Ya,Cibubur,"Plasa Cibubur, Lantai Ground, Jl. Alternatif Cibubur, Cibubur, Jakarta",-6.3763011287,106.915229447,Jawa Barat,Bekasi Kota,Jatisampurna
Waroeng Ikan Bakar,Senen,"Plaza Atrium, Lantai 4, Food Colony, Jl. Senen Raya No. 135, Senen, Jakarta",-6.1773902877,106.841300055,DKI Jakarta,Jakarta Pusat,Senen
"Martabak Bangka ""Bong Khui""",Pulo Gadung,"Jl. Sunan Sedayu No.10, Pulo Gadung, Jakarta",-6.197274,106.891615,DKI Jakarta,Jakarta Timur,Pulogadung
Kreta  Kupi,Kelapa Gading,"Apartemen Gading Nias Residence, Tower Emerald, Jl. Raya Pegangsaan Dua No. 3, Kelapa Gading, Jakarta",-6.1543160613,106.917627342,DKI Jakarta,Jakarta Utara,Kelapa Gading
SGPC HUUH,Jatisampurna,"Fresh Market Kota Wisata, Jl. Boulevard Kota Wisata No. 23-26, Jatisampurna, Bekasi",-6.3661386975,106.957007534,Jawa Barat,Bogor Kabupaten,Gunung Putri
Inang's Kitchen,SCBD,"Energy Building, Lantai B1, Food Court, Jl. Jenderal Sudirman, SCBD, Jakarta",-6.2260744608000005,106.80643670200001,DKI Jakarta,Jakarta Selatan,Kebayoran Baru
Gado - Gado Suparjo,Senayan,"Kuliner GBK, Pintu 7, Jl. Stadion Senayan, Senayan, Jakarta",-6.2154561276999996,106.805628016,DKI Jakarta,Jakarta Pusat,Tanah Abang
Ritz Cafe - Orchardz Hotel,Sawah Besar,"Orchardz Hotel, Jl. Pangeran Jayakarta No. 44, Sawah Besar, Jakarta",-6.1435926149,106.828616224,DKI Jakarta,Jakarta Pusat,Sawah Besar
Nomar Cafe,Thamrin,"Stasiun BNI City, Jl. Tanjung Karang No. 1, Thamrin, Jakarta, Thamrin, Jakarta",-6.201893,106.821709,DKI Jakarta,Jakarta Pusat,Tanah Abang
Mie I Am,Blok M,"Plaza Blok M, Lantai 5, Food Society, Jl. Bulungan No. 76, Blok M, Jakarta",-6.244274,106.797536,DKI Jakarta,Jakarta Selatan,Kebayoran Baru
Nomer 9,SCBD,"PAC 10, SCBD Lot 10, Jl. Jenderal Sudirman, SCBD, Jakarta",-6.227786,106.808507,DKI Jakarta,Jakarta Selatan,Kebayoran Baru
Hi-Cocoa,Pondok Aren,"Giant Bintaro Sektor 7, Lantai 2, Jl. Rasuna Said, Pondok Aren, Tangerang",-6.275365,106.71925,Banten,Tangerang Selatan,Pondok Aren
Soto Betawi,Gunung Sahari,"Golden Truly Mall, Lantai 1, Food Court, Jl. Gunung Sahari No. 59, Gunung Sahari, Jakarta",-6.161532,106.838154,DKI Jakarta,Jakarta Pusat,Kemayoran
Nasi Uduk Ayung,Muara Karang,"Jl. Niaga II No. 25, Muara Karang, Jakarta",-6.116168,106.779136,DKI Jakarta,Jakarta Utara,Penjaringan
Dips N Saus,Grogol,"PHX Grogol, Lantai 2, Jl. Dr. Susilo No. 342, Grogol, Jakarta",-6.1658610000000005,106.791977,DKI Jakarta,Jakarta Barat,Grogol Petamburan
Mie Aceh Meutuah,Gunung Sahari,"Jl. Gunung Sahari No. 1A, Gunung Sahari, Jakarta",-6.135946,106.832319,DKI Jakarta,Jakarta Utara,Pademangan
Warung Bu Nissya,Periuk,"Pertokoan Barkah, Blok J9, Jl. Raya Puri Agung, Periuk, Tangerang",-6.153823,106.580888,Banten,Tangerang Kabupaten,Pasar Kemis
Jagoan Bakso Malang,Blok M,"Plaza Blok M, Lantai 5, Food Society, Jl. Bulungan No. 76, Blok M, Jakarta",-6.244516213300001,106.79774500399999,DKI Jakarta,Jakarta Selatan,Kebayoran Baru
Spice Restaurant - Mercure Jakarta Kota,Mangga Besar,"Mercure Jakarta Kota Hotel, Jl. Hayam Wuruk No. 123, Mangga Besar, Jakarta",-6.14913,106.817382,DKI Jakarta,Jakarta Barat,Tamansari
Bakso Solo,Senayan,"Kuliner GBK, Pintu 7, Jl Stadion Senayan, Senayan, Jakarta",-6.2149148396000005,106.806233525,DKI Jakarta,Jakarta Pusat,Tanah Abang
Black Street Coffee,Puri Indah,"Jl. Kencana Indah I, Blok J1 No. 1B, Puri Indah, Jakarta",-6.190468,106.744021,DKI Jakarta,Jakarta Barat,Kembangan
Jumpa,Pondok Aren,"Pasar Modern Bintaro, Jl. Jenderal Sudirman, Pondok Aren, Tangerang",-6.279662,106.71922,Banten,Tangerang Selatan,Pondok Aren
Sate Ambal Khas Kebumen,Melawai,"Pasaraya Grande, Lantai Lower Ground, Dapuraya, Jl. Iskandarsyah II, Melawai, Jakarta",-6.245246444299999,106.804854869,DKI Jakarta,Jakarta Selatan,Kebayoran Baru
Subiaco Coffee & Milk,Kebayoran Lama,"Jl. Swadarma Raya No. 95, Kebayoran Lama, Jakarta",-6.221203,106.760484,DKI Jakarta,Jakarta Barat,Kembangan
Cafe de Kalaha,Karet,"Ciputra World, Lotte Shopping Avenue, Lantai 3, Jl. Prof Dr Satrio, Karet, Jakarta",-6.2247569299,106.82338222799999,DKI Jakarta,Jakarta Selatan,Setiabudi
Soto Betawi Bang Jamhur 3,Bogor Utara,"Ruko Villa Bogor Indah, Blok CA 2 No. 5, Bogor Utara, Bogor",-6.5451642129,106.80981427399999,Jawa Barat,Bogor Kota,Bogor Utara
MH Coffee,Bekasi Selatan,"Mega Bekasi Hypermall, Lantai 3, Jl. Jenderal Ahmad Yani, Bekasi Selatan, Bekasi",-6.249716,106.993248,Jawa Barat,Bekasi Kota,Bekasi Selatan
Golden Key Bistro,Manggarai,"Pasaraya Manggarai, Lantai Basement, DAPURAYA, Jl. Sultan Agung No. 1, Manggarai, Jakarta",-6.2095660000000015,106.847049,DKI Jakarta,Jakarta Selatan,Setiabudi
Saung Prasmanan Palay Sindang,Kemayoran,"ITC Cempaka Mas, Lantai 5, Food Court, Jl. Letjen Suprapto, Cempaka Putih, Jakarta",-6.1646212865,106.877361685,DKI Jakarta,Jakarta Pusat,Kemayoran
Sate Nikmat Khas Tegal,Kemang,"The Green Corner, Jl. Pejaten Barat No. 71, Kemang, Jakarta",-6.277666871799999,106.82760804799999,DKI Jakarta,Jakarta Selatan,Pasar Minggu
Cake & Pastry,Cakung,"AEON Mall, Lantai Ground, Jl. Jakarta Garden City, Cakung, Jakarta",-6.1721613244,106.95175543399999,DKI Jakarta,Jakarta Timur,Cakung
Kopi Kenangan,Cimanggis,"Giant Cimanggis, Jl. Raya Bogor No.KM. 31, Cimanggis, Depok",-6.371097,106.860841,Jawa Barat,Depok,Sukma Jaya
Mee_Oowf,Bogor Utara,"Ruko 2C, Jl. Achmad Sobana No. 28, Bogor Utara, Bogor",-6.5820490000000005,106.814839,Jawa Barat,Bogor Kota,Bogor Utara
Turn On Coffee & Eatery,Kebon Jeruk,"Harvia Suites Building, Jl. Raya Perjuangan No. 63, Kebon Jeruk, Jakarta, Kebon Jeruk, Jakarta",-6.197255,106.764359,DKI Jakarta,Jakarta Barat,Kebon Jeruk
One More Shot Coffee House,Pantai Indah Kapuk,"Fresh Market, Jl. Pantai Indah Kapuk Boulevard No. 29 - 30, Pantai Indah Kapuk, Jakarta",-6.102836,106.741529,DKI Jakarta,Jakarta Utara,Penjaringan
Soto Ayam Barokah H. Iwan,Beji,"Jl. Margonda Raya No. 367, Beji, Depok",-6.372133753300001,106.832838691,Jawa Barat,Depok,Beji
Soto Betawi Bang Udy,Melawai,"Pasaraya Grande, Lantai Lower Ground, Dapuraya, Jl. Iskandarsyah II, Melawai, Jakarta",-6.2450384735,106.80263098299999,DKI Jakarta,Jakarta Selatan,Kebayoran Baru
Es Kelapa,Kuningan,"RPI Food Court, Jl. Mesjid Darul Muqorrobin Blok A No. 33A, Kuningan, Jakarta",-6.2284205442,106.83395113799999,DKI Jakarta,Jakarta Selatan,Setiabudi
Aladin,Senopati,"Pujasera Blok S, Food Court, Jl. Birah 3, Senopati, Jakarta",-6.2366002575,106.81525815200001,DKI Jakarta,Jakarta Selatan,Kebayoran Baru
Warung Sate Solo Pak Min,Koja,"Jl. Alur Laut Raya, Koja, Jakarta",-6.128459284,106.89920727100001,DKI Jakarta,Jakarta Utara,Koja
Ayam Bebek Baya,Bekasi Barat,"Pertokoan Duta Permai, Jl. KH Noer Ali, Bekasi Barat, Bekasi",-6.2490082342,106.96984928100001,Jawa Barat,Bekasi Kota,Bekasi Barat
Gado - Gado & Rujak,Bekasi Selatan,"Mega Bekasi Hypermall, Lantai 3, Foodwalk, Jl. Jenderal Ahmad Yani, Bekasi Selatan, Bekasi",-6.250011,106.99318,Jawa Barat,Bekasi Kota,Bekasi Selatan
RM. Bakso Asia Jaya (Lany),Kelapa Gading,"Jl. Kelapa Kopyor, Blok CE 2 No. 12, Kelapa Gading, Jakarta",-6.1698773242,106.90229080600001,DKI Jakarta,Jakarta Utara,Kelapa Gading
Rumah Makan Cinto Minang,Bekasi Selatan,"Ruko Sentra Niaga Kalimalang Blok A1 No. 6, Jl. Jenderal Ahmad Yani, Bekasi Selatan, Bekasi",-6.241291,106.992825,Jawa Barat,Bekasi Kota,Bekasi Selatan
Warkop Soerabi,Pondok Aren,"Ruko Kebayoran Arcade 2, Jl. Boulevard Bintaro Jaya, Blok B No. 25, Pondok Aren, Tangerang",-6.2723330000000015,106.715417,Banten,Tangerang Selatan,Pondok Aren
Seroja,Karet,"Ciputra World 2, Jl. Prof. DR. Satrio No. Kav.11, Karet, Jakarta",-6.222124,106.819983,DKI Jakarta,Jakarta Selatan,Setiabudi
Ayam DiCabein,Pasar Minggu,"Jl. Nangka Raya No.3, Pasar Minggu, Jakarta",-6.302612,106.848982,DKI Jakarta,Jakarta Selatan,Jagakarsa
Raosna Warung Makan Sunda,Fatmawati,"Jl. Margasatwa No. 14, Fatmawati, Jakarta",-6.313180450700001,106.80327404200001,DKI Jakarta,Jakarta Selatan,Cilandak
Strata Kopi,Ciputat Timur,"Jl. WR. Supratman No. 88, Ciputat Timur, Tangerang",-6.292331,106.746371,Banten,Tangerang Selatan,Ciputat Timur
Kantin Warna Sari,Serpong,"Ruko Golden Madrid 1, Jl. Letnan Sutopo, Blok E18, Serpong, Tangerang",-6.304874,106.686796,Banten,Tangerang Selatan,Serpong
Seblak Umi Kitchen,Pancoran Mas,"Jl. Mandor Basar, Gg. Haji Nisan, Pancoran Mas, Depok",-6.385314,106.782762,Jawa Barat,Depok,Pancoran Mas
RM. SAKA,Cakung,"Jl. Kp. Bulak Jaya No. 73, Cakung, Jakarta",-6.21585,106.945289,DKI Jakarta,Jakarta Timur,Cakung
Shitako Takoyaki,Gandaria,"Gandaria City, Eat & Eat, Lantai 2, Jl. Sultan Iskandar Muda, Gandaria, Jakarta",-6.244363,106.783504,DKI Jakarta,Jakarta Selatan,Kebayoran Lama
Wong Kudus GOR Tangerang,Kec. Tangerang,"Jl. A. Damyati No. 23B, ], Kec. Tangerang, Tangerang",-6.177805,106.63273999999998,Banten,Tangerang Kota,Tangerang
Dapur Darurat,Tanjung Duren,"Jl. Tj. Duren Selatan II Gg. IV No. 8, Tanjung Duren, Jakarta",-6.1833348499000005,106.78509101200001,DKI Jakarta,Jakarta Barat,Grogol Petamburan
Kisel Healthy Drinks,SCBD,"Plaza Bapindo, Lantai Ground, MM Food, Jl. Jenderal Sudirman, SCBD, Jakarta",-6.225353535499999,106.80837426299999,DKI Jakarta,Jakarta Selatan,Kebayoran Baru
Baratdaya Coffee,Beji,"Jl. Margonda Raya, Gg, Masjid, Beji, Depok",-6.3574730000000015,106.833647,Jawa Barat,Depok,Beji
Baki Jowo Kondang Roso,Jatisampurna,"Jl. Boulevard Kota Wisata Blok I11 No.11, Jatisampurna, Bekasi",-6.368087999999998,106.955448,Jawa Barat,Bogor Kabupaten,Gunung Putri
Studio Kedai 42,Kemang,"Bellevuecour No. 5, Jl. Kemang Utara, Kemang, Jakarta",-6.2584154235,106.82069767200001,DKI Jakarta,Jakarta Selatan,Mampang Prapatan
Nasi Rendang & Nasi Ayam/Ikan RM. Elok Saiyo,Gambir,"Lenggang Jakarta, Blok C-12, Jl. Medan Merdeka Selatan, Gambir, Jakarta",-6.180167,106.825109,DKI Jakarta,Jakarta Pusat,Gambir
Ucok Durian,Bogor Utara,"Jl. Pandu Raya No. 14A, Bogor Utara, Bogor",-6.579578,106.818261,Jawa Barat,Bogor Kota,Bogor Utara
Nasi Uduk Bang Dihul,Larangan,"Jl. Kejaksaan IIIA No. 40, Larangan, Tangerang",-6.227657,106.737545,Banten,Tangerang Kota,Larangan
Sari Laut 102 Bang Eeedot,Puri Indah,"Jl. Puri Kembangan, Puri Indah, Jakarta",-6.183682,106.752829,DKI Jakarta,Jakarta Barat,Kembangan
Ayam Bakar Maknyos,Bekasi Selatan,"Revo Town Mall, Piring Sendok Foodcourt, Lantai 1, Jl. Jend. A. Yani Kav. 1, Bekasi Selatan, Bekasi",-6.253964810199999,106.989556811,Jawa Barat,Bekasi Kota,Bekasi Selatan
Arum Sunda,Bogor Timur,"Jl. Kol. H. Sham No. 1000, Bogor Timur, Bogor",-6.6005897860000005,106.818339675,Jawa Barat,Bogor Kota,Bogor Utara
Bakmi Jawa Mas Toedji Wonosari,Mustikajaya,"Ruko Duku Zamrud, Blok N No. 21, Jl. Ruko Duku Zamrud, Mustikajaya, Bekasi",-6.3098370139,107.02226065100001,Jawa Barat,Bekasi Kota,Mustikajaya
Harmoni Permai,Gambir,"Jl. Petojo Binatu II, Blok J No. 30-31, Gambir, Jakarta",-6.168886,106.817973,DKI Jakarta,Jakarta Pusat,Gambir
Tropicale Juice Bar,Cilandak,"Ampera Garden, Jl. Ampera Raya No. 116, Cilandak, Jakarta",-6.288935,106.817939,DKI Jakarta,Jakarta Selatan,Pasar Minggu
Pempek Qu,Kelapa Gading,"Jl. Boulevard Raya Blok WA 2 No. 32, Kelapa Gading, Jakarta",-6.1648872896,106.902461126,DKI Jakarta,Jakarta Utara,Kelapa Gading
Bakso Rusuk 1987,Pondok Aren,"Jl. Bintaro Utama V, Blok EA 1 No. 17, Pondok Aren, Tangerang",-6.270169,106.731358,Banten,Tangerang Selatan,Ciputat Timur
Warung Nasi Ampera,Bogor Utara,"Jl. K.S. Tubun No. 111, Bogor Utara, Bogor",-6.5612112753,106.811714619,Jawa Barat,Bogor Kota,Bogor Utara
Kazuhiro,Kuningan,"Mall Ambasador lantai 4, Blok J2 No. 02, Kuningan, Jakarta",-6.223731,106.826706,DKI Jakarta,Jakarta Selatan,Setiabudi
Bakso Djempol Dua Pontianak,Sunter,"Jl. Sunter Hijau Raya SC 2 No.11, Sunter, Jakarta",-6.156468,106.87509,DKI Jakarta,Jakarta Utara,Tanjung Priok
Bakso H. Sunar,Cakung,"Jl. Pulo Gebang No. 8, Cakung, Jakarta",-6.2065158035,106.95498313700001,DKI Jakarta,Jakarta Timur,Cakung
Saung Regency,Pancoran Mas,"Jl. Raya Citayam No. 98, Pancoran Mas, Depok",-6.4223955614,106.81332763200001,Jawa Barat,Depok,Cipayung
Minomu Oishii,Sukmajaya,"Jl. Kejayaan No. 29, Sukmajaya, Depok",-6.391584,106.851777,Jawa Barat,Depok,Sukma Jaya
Saung Loa 2,Bogor Tengah,"Jl. Tentara Pelajar No. 4, Bogor Tengah, Bogor",-6.582050000700001,106.78813900799999,Jawa Barat,Bogor Kota,Bogor Tengah
Bakso Sapi 78 Singkawang,Periuk,"Ruko Vila Tomang Baru, Jl. Tomang Raya Utara Blok A1 No. 42, Periuk, Tangerang",-6.156735132100001,106.582344509,Banten,Tangerang Kabupaten,Pasar Kemis
Bakmi Panglima,Pondok Aren,"Blok JB 1 No. 10B, Jl. Bintaro Utama 9, Pondok Aren, Tangerang",-6.281112,106.710119,Banten,Tangerang Selatan,Pondok Aren
Mang Rawit,Tanjung Duren,"Central Park, Lantai 2, Urban Kitchen, Jl. Letjen S. Parman, Tanjung Duren, Jakarta",-6.1783582752,106.79130803700001,DKI Jakarta,Jakarta Barat,Grogol Petamburan
Indo Mee Style,Kelapa Gading,"Jl. Raya Kelapa Gading Permai Blok J1 No. 4, Kelapa Gading, Jakarta",-6.170370309299999,106.9001467,DKI Jakarta,Jakarta Utara,Kelapa Gading
Ikan Bakar Bumbu Kuning Hayam Wuruk,Mangga Besar,"LTC Glodok, Lantai 2, Food Court, Jl. Hayam Wuruk No. 127, Hayam Wuruk, Jakarta",-6.145869,106.817083,DKI Jakarta,Jakarta Barat,Tamansari
Waroeng Dwisari,Kalimalang,"Jl. Inspeksi Saluran Kalimalang Blok E No. 97, Kalimalang, Jakarta",-6.2465285954,106.907665617,DKI Jakarta,Jakarta Timur,Duren Sawit
Warunk Juku Eja,Kuningan,"Rasuna Garden Foodstreet, Jl. Epicentrum Tengah No. 3, Kuningan, Jakarta",-6.218823,106.833741,DKI Jakarta,Jakarta Selatan,Setiabudi
Restu Ibu,Jagakarsa,"Jl. Jagakarsa Raya No 1, Jagakarsa, Jakarta",-6.327495,106.816592,DKI Jakarta,Jakarta Selatan,Jagakarsa
KoPidoR Coffee,Serpong,"BSD Eminent, Cluster Precia, Jl. Precia 1, Blok F6 No. 16, Serpong, Tangerang",-6.296634,106.633137,Banten,Tangerang Kabupaten,Pagedangan
Ratu Bulan Cafe & Martabak,Cengkareng,"Ruko Garden Maisonette, Blok B2 No. 1, Jl. Kamal Cengkareng, Cengkareng, Jakarta",-6.1298967306,106.736441776,DKI Jakarta,Jakarta Barat,Cengkareng
Acai Kwetiau,Cengkareng,"Ruko Permata Taman Palem, Blok A3 No. 5, Jl. Permata Taman Palem, Cengkareng, Jakarta",-6.132957,106.711493,DKI Jakarta,Jakarta Barat,Kalideres
Kani resto,Bogor Utara,"Jl. Achmad Adnawijaya No. 71, Bogor Utara, Bogor",-6.58511,106.81692,Jawa Barat,Bogor Kota,Bogor Utara
Tuku Buku & Kopi Cak Tarno,Beji,"Universitas Indonesia, FIB UI, Gedung VIII, Jl. Prof. Dr. Selo Soemardjan, Beji, Depok",-6.3641680975999995,106.826964318,Jawa Barat,Depok,Beji
Ayam Goreng Mas Bo,Cibodas,"Ruko Mutiara Karawaci, Jl. Mutiara Raya, Cibodas, Tangerang",-6.2188,106.596627,Banten,Tangerang Kabupaten,Kelapa Dua
Ko Mie,Jatinegara,"Mall@Bassura City, Lantai 2, Eat & Eat, Jl. Jendral Basuki Rahmat No. 1, Jatinegara, Jakarta",-6.223507055700001,106.878618635,DKI Jakarta,Jakarta Timur,Jatinegara
Piaman Laweh,Ciledug,"Plaza Baru Ciledug, Food Court, Jl. HOS Cokroaminoto, Ciledug, Tangerang",-6.2251078941,106.70834463,Banten,Tangerang Kota,Ciledug
Pecel Madiun & Ayam/Ikan Penyet Buto,Gambir,"Lenggang Jakarta, Blok C-35, Jl. Medan Merdeka Selatan, Gambir, Jakarta",-6.180331,106.825589,DKI Jakarta,Jakarta Pusat,Gambir
Paon Siap,Senopati,"Jl. Birah Raya No. 10, Senopati, Jakarta",-6.2358776802,106.81486487299999,DKI Jakarta,Jakarta Selatan,Kebayoran Baru
Iga Nyonyor & Kerang Arisan,Cengkareng,"Jl. Boulevard Raya No. 2A, Cengkareng, Jakarta",-6.136821,106.732303,DKI Jakarta,Jakarta Barat,Cengkareng
Ayam Kablak,Beji,"Jl. H. Moh. Ali No. 1, Beji, Depok",-6.378899432000001,106.805923059,Jawa Barat,Depok,Beji
Kakatuwa Coffee,Kuningan,"Graha Aktiva, Lantai Ground, Jl. H. R. Rasuna Said No. 3, Kuningan, Jakarta",-6.2334133108000005,106.83250878,DKI Jakarta,Jakarta Selatan,Setiabudi
BPK Tualah Sirulo,Pulo Gadung,"Jl. Waringin Raya No. 44B, Pulo Gadung, Jakarta",-6.184252,106.880704,DKI Jakarta,Jakarta Timur,Pulogadung
Kalme Coffee,Serpong,"Plaza Cordoba, Sektor 14-4, Blok I 10, Jl. Batam, Serpong, Tangerang",-6.301366000000002,106.691981,Banten,Tangerang Selatan,Serpong
Gallery Cafe,Mangga Dua,"Pasar Pagi Mangga Dua, Lantai 5, Jl. Mangga Dua Raya, Mangga Dua, Jakarta",-6.136196514400001,106.822863891,DKI Jakarta,Jakarta Utara,Pademangan
Kopi Doet,Kelapa Gading,"Citi Hub Harton Tower, Lantai Ground, Jl. Sentra Bisnis Artha Gading Kav. D No. 3, Kelapa Gading, Jakarta Utara",-6.1473510000000005,106.896877,DKI Jakarta,Jakarta Utara,Kelapa Gading
Tiny House Coffee,Cimanggis,"Jl. Sakub No. 45, Cimanggis, Depok",-6.3779900000000005,106.847535,Jawa Barat,Depok,Sukma Jaya
Soto Betawi,Sudirman,"fX Sudirman, Lantai F5, Eat & Eat, Jl. Jenderal Sudirman, Sudirman, Jakarta",-6.2247555967,106.804009974,DKI Jakarta,Jakarta Pusat,Tanah Abang
Roti Bakar Kukus Kuro,Thamrin,"Jl. M.H Thamrin No. 10, Thamrin, Jakarta",-6.1847910000000015,106.823809,DKI Jakarta,Jakarta Pusat,Menteng
RM Surabaya H. Wahab,Beji,"Jl. Margonda Raya, Beji, Depok",-6.3713437241,106.83306030899999,Jawa Barat,Depok,Beji
Super Cowboy Cafe,Cibubur,"Plasa Cibubur, Jl. Alternatif Cibubur, Cibubur, Jakarta",-6.3758796279,106.91567,Jawa Barat,Bekasi Kota,Jatisampurna
Ayam Bebek WI-GI,Grogol,"Q Food & Music, Jl. Dr Susilo Raya C8, Grogol, Jakarta",-6.165829,106.795885,DKI Jakarta,Jakarta Barat,Grogol Petamburan
Hoki Porki,Tanjung Duren,"Apartemen Mediterania 2, Tower JK, Jl. Tanjung Duren Raya, Tanjung Duren, Jakarta",-6.176442,106.788769,DKI Jakarta,Jakarta Barat,Grogol Petamburan
Ayam Talita,Kebon Jeruk,"JAWARA Food Court, Jl. Meruya Ilir Raya No. 25, Kebon Jeruk, Jakarta",-6.19822,106.758886,DKI Jakarta,Jakarta Barat,Kembangan
Kampung Naga,Kelapa Gading,"Jl. Arteri Klp. Gading, Kelpa Gading, Jakarta",-6.174958,106.912876,DKI Jakarta,Jakarta Utara,Kelapa Gading
Yokunatta,Senayan,"Rukan Permata Senayan, Jl. Tentara Pelajar, Senayan, Jakarta",-6.2215825767999995,106.791695281,DKI Jakarta,Jakarta Selatan,Kebayoran Lama
Santuy,Daan Mogot,"Citra Garden 2, Blok K2 No. 15, Jl. Kesayangan Selatan, Daan Mogot, Jakarta",-6.141525,106.709429,DKI Jakarta,Jakarta Barat,Kalideres
Ghrana Kopi,Fatmawati,"Jl. Kirai I No. 36B, Fatmawati, Jakarta",-6.257833,106.800498,DKI Jakarta,Jakarta Selatan,Kebayoran Baru
Soycin,Grogol,"Mall Ciputra, Lantai 6, Food Library, Jl. Arteri S. Parman, Grogol, Jakarta",-6.16832,106.786406,DKI Jakarta,Jakarta Barat,Grogol Petamburan
Lembah Anai,Bogor Tengah,"Jl. Dr. Sumeru No. 21, Bogor Tengah, Bogor",-6.5901964008,106.785812526,Jawa Barat,Bogor Kota,Bogor Tengah
Crab Karaka Timika,Bogor Utara,"Jl. Raya Bogor No. 46, Bogor Utara, Bogor",-6.495342,106.844623,Jawa Barat,Bogor Kabupaten,Cibinong
Murabene,Bekasi Selatan,"Rukan Grand Galaxy City, Blok RGB No. 87, Jl. Boulevard Raya Barat, Bekasi Selatan, Bekasi",-6.274536,106.974466,Jawa Barat,Bekasi Kota,Bekasi Selatan
Mie Benteng,Benda,"Bandara City Mall, Ruko SA No. 25, Jl. Raya Perancis, Benda, Tangerang",-6.090484,106.692582,Banten,Tangerang Kabupaten,Kosambi
Ayam Rempah Warisan,Kec. Tangerang,"Tangerang City Mall, Lantai 2, Rame-Rame Street Food, Jl. Jendral Sudirman number. 1, Kec. Tangerang, Tangerang",-6.193608,106.633795,Banten,Tangerang Kota,Tangerang
Saung Ikan Nusantara,Bekasi Barat,"Jl. Bintara 4, Bekasi Barat, Bekasi",-6.226325,106.951168,Jawa Barat,Bekasi Kota,Bekasi Barat
Bolu Pisang Ibu Onih,Kebayoran Lama,"Jl. Raya Kebayoran Lama No. 65, Kebayoran Lama, Jakarta",-6.207198,106.783416,DKI Jakarta,Jakarta Selatan,Kebayoran Lama
Bakso Sapi Pak Mul,Sudirman,"Sahid Food StrEAT, Jl. Jenderal Sudirman No. 86, Sudirman, Jakarta",-6.210245,106.819665,DKI Jakarta,Jakarta Pusat,Tanah Abang
Kuning Coffee,Bekasi Utara,"Jl. Perjuangan Raya, Bekasi Utara, Bekasi",-6.2301033585,107.003659866,Jawa Barat,Bekasi Kota,Bekasi Utara
Ikan Bakar 1000 Pulau,Pancoran Mas,"Jl. Siliwangi No. 7J, Pancoran Mas, Depok",-6.3996284088,106.822303645,Jawa Barat,Depok,Pancoran Mas
Let's Eat !,Jelambar,"Komplek Taman Duta Mas, Jl. Kusuma, Blok A7 No. 25, Jelambar, Jakarta",-6.149406,106.780981,DKI Jakarta,Jakarta Barat,Grogol Petamburan
OMAH KOPI ITEM PUTI,Ciputat Timur,"JL. W. R. Supratman No. 6, Ciputat Timur, Tangerang",-6.296231,106.747515,Banten,Tangerang Selatan,Ciputat Timur
MM Seafood,Jatiuwung,"Permata Sport Club, Jl. Taman Permata, Jatiuwung, Tangerang",-6.2235559999999985,106.58761,Banten,Tangerang Kabupaten,Curug
Martabak AKHIM,Serpong,"Ruko Versailles, Blok FA No. 17, Jl. Wortel I, Serpong, Tangerang",-6.307666,106.673778,Banten,Tangerang Selatan,Serpong
Lak Cee,Penjaringan,"Emporium Pluit Mall, Jl. Pluit Selatan Raya, Penjaringan, Jakarta",-6.1272991899,106.79119002,DKI Jakarta,Jakarta Utara,Penjaringan
Carl's Jr.,Serpong,"Floating Castle, Cluster Commercial Park Barat No. 1, Jl. Grand Boulevard, BSD City, Serpong, Tangerang",-6.297821,106.640198,Banten,Tangerang Kabupaten,Pagedangan
Bebek Tengil,Kuningan,"Epicentrum Walk, Lantai 1, Eat & Eat, Jl. HR. Rasuna Said, Kuningan, Jakarta",-6.2188001691,106.83505587200001,DKI Jakarta,Jakarta Selatan,Setiabudi
Pondok Dahar Mbah Beres,Bekasi Barat,"Jl. Patriot No.100 A, Bekasi Barat, Bekasi",-6.241695,106.969064,Jawa Barat,Bekasi Kota,Bekasi Barat
Bakso Wonogiri Lek Win,Makasar,"Jl. Komodor Halim Perdana Kusuma No. 40, Makasar, Jakarta",-6.265779,106.879273,DKI Jakarta,Jakarta Timur,Makasar
Mr. Mac's,Grogol,"Mall Ciputra, Lantai 3, Jl. Arteri S. Parman, Grogol, Jakarta",-6.168307,106.786669,DKI Jakarta,Jakarta Barat,Grogol Petamburan
Utopia,Serpong Utara,"Ruko Alexandrite, Blok ALX 2 No. 31, Jl. Raya Grand Duta Tangerang, Serpong Utara, Tangerang",-6.174068,106.590679,Banten,Tangerang Kota,Periuk
Bakmi Jung Fo,Mangga Besar,"LTC Glodok, Lantai 2, Food Court, Jl. Hayam Wuruk No. 127, Hayam Wuruk, Jakarta, Mangga Besar, Jakarta",-6.1462080000000014,106.816922,DKI Jakarta,Jakarta Barat,Tamansari
Gudeg Solo,Bogor Tengah,"Bogor Trade Mall, Lantai 3, Food Court, Jl. Ir H Juanda No. 68, Bogor Tengah, Bogor",-6.6052794939999995,106.79541315799999,Jawa Barat,Bogor Kota,Bogor Tengah
Rollicious Cake,Pluit,"Pluit Timur Residence, Blok Z No. 11A, Jl. Pluit Selatan, Pluit, Jakarta",-6.1210993104,106.794602796,DKI Jakarta,Jakarta Utara,Penjaringan
Aneka Selera Nusantara,Bogor Tengah,"Jl. Merdeka No. 68, Bogor Tengah, Bogor",-6.5923742803,106.78801529100001,Jawa Barat,Bogor Kota,Bogor Tengah
Kedung Sari,Kelapa Gading,"Mall of Indonesia, Lantai Lower Ground, Pasar MOI, Jl. Boulevard Barat Raya, Kelapa Gading, Jakarta",-6.151061,106.892077,DKI Jakarta,Jakarta Utara,Kelapa Gading
Queen's Corner,Kota,"Pancoran Chinatown Point, Lantai 2, Jl. Pancoran No. 42A, Kota, Jakarta",-6.141151,106.812886,DKI Jakarta,Jakarta Barat,Tamansari
Sate Padang & Nasi Goreng Rendang Bunda Liz - Pariaman,Gandaria,"Gandaria City, Lantai 2, Eat & Eat, Jl. Sultan Iskandar Muda, Gandaria, Jakarta",-6.2441559999999985,106.783531,DKI Jakarta,Jakarta Selatan,Kebayoran Lama
Mie Ayam Bakso Jakarta & Gado-Gado Bu Rayhan,Gambir,"Lenggang Jakarta, Blok A-10, Jl. Medan Merdeka Selatan, Gambir, Jakarta",-6.179634,106.825069,DKI Jakarta,Jakarta Pusat,Gambir
Kwetiau Sapi Aan,Sunter,"Food Market Sunter, Lantai 2, Jl. Danau Sunter Utara Blok A3 No. 15, Sunter, Jakarta",-6.140925136900001,106.85761895,DKI Jakarta,Jakarta Utara,Tanjung Priok
Padang Bistro,Kelapa Gading,"Graha SKG, Jl. Kelapa Nias Raya Blok GN, Kelapa Gading, Jakarta",-6.1531960248000015,106.90723747,DKI Jakarta,Jakarta Utara,Kelapa Gading
Delizio,Mustikajaya,"Perum Dukuh Zamrud, Blok GA No. 22, Jl. Dukuh Zamrud Selatan, Mustikajaya, Bekasi",-6.3150765994,107.02162697899999,Jawa Barat,Bekasi Kota,Mustikajaya
Siomay Lim 88,Sunter,"Food Market Sunter, Jl. Danau Sunter Utara, Blok A3 No. 15, Sunter, Jakarta",-6.140575,106.857582,DKI Jakarta,Jakarta Utara,Tanjung Priok
Angel's Coffee House,Serpong Utara,"Ruko Graha Boulevard, Blok D No. 8, Jl. Boulevard Gading Serpong, Serpong Utara, Tangerang",-6.252553030700001,106.625884808,Banten,Tangerang Kabupaten,Kelapa Dua
Warung Nasi Pakde,Jatisampurna,"Kota Wisata Cibubur, Jl. Boulevard Kota Wisata, Blok D No. 34, Jatisampurna, Bekasi",-6.3697413372000025,106.95726636799999,Jawa Barat,Bogor Kabupaten,Gunung Putri
Roasted Bar Jakarta,Bintaro,"Jl. Taman Bintaro No. 1, Bintaro, Jakarta",-6.271686,106.758049,DKI Jakarta,Jakarta Selatan,Pesanggrahan
Love Nature Vegie,Mangga Dua,"Mangga Dua Square, Lantai 3, Food City, Jl. Gunung Sahari, Mangga Dua, Jakarta",-6.138160973,106.831338331,DKI Jakarta,Jakarta Utara,Pademangan
Es Cendol Elisabeth,Pasar Baru,"Harco Pasar Baru, Lantai 3E, Food Court, Jl. H. Samanhudi No. 133, Pasar Baru, Jakarta",-6.1618,106.832469,DKI Jakarta,Jakarta Pusat,Sawah Besar
Sari Sunda Rasa,Tanah Sareal,"Ruko Plaza Indah Bogor, Jl. KH. Sholeh Iskandar, Tanah Sareal, Bogor",-6.561638,106.790345,Jawa Barat,Bogor Kota,Tanah Sereal
Soto Ayam Madura,Thamrin,"Kawasan Kuliner BSM, Jl. MH Thamrin, Thamrin, Jakarta",-6.184577,106.824495,DKI Jakarta,Jakarta Pusat,Menteng
Kuliner Palembang,Kampung Melayu,"Tamansari Hive, Lantai 2, Wiki Wiki Wok, Food Runway, Jl. D.I. Panjaitan, Kampung Melayu, Jakarta",-6.2448739999999985,106.875269,DKI Jakarta,Jakarta Timur,Jatinegara
Cismura Bakery,Penjaringan,"Jl. Pluit Raya 132 Blok E, Penjaringan Jakarta Utara",-6.127131509400001,106.79387927,DKI Jakarta,Jakarta Utara,Penjaringan
Porc Rice Bowl,Serpong,"Pasar Modern Intermoda, Blok D5 No. 8, Serpong, Tangerang",-6.30434,106.684644,Banten,Tangerang Selatan,Serpong
Warung Anyelir,Cijantung,"Cijantung Mall, Lantai 3, Jl. Raya Pendidikan No. 1, Cijantung, Jakarta",-6.312709,106.861896,DKI Jakarta,Jakarta Timur,Pasar Rebo
SEKUTS KOPI,Jagakarsa,"Jl. Srengseng Sawah No.6 Raya, Jagakarsa, Jakarta",-6.35564,106.813467,DKI Jakarta,Jakarta Selatan,Jagakarsa
Albergo Coffee,Kebayoran Lama,"The Bellezza Suites, Jl. Letjen Soepeno No. 34, Kebayoran Lama, Jakarta",-6.221684,106.782729,DKI Jakarta,Jakarta Selatan,Kebayoran Lama
SERA Kitchen & Cafe,Ciputat Timur,"Jl. Pondok Cabe Raya No. 89, Ciputat Timur, Tangerang",-6.325539,106.766775,Banten,Tangerang Selatan,Pamulang
Pondok Pelangi,Serpong Utara,"WTC Matahari, Lantai Upper Ground, Food Court, Jl. Raya Serpong, Serpong Utara, Tangerang",-6.266548,106.655634,Banten,Tangerang Selatan,Serpong Utara
Bakmi Aliong,Grogol,"Mall Ciputra, Lantai 6, Food Library, Jl. Arteri S. Parman, Grogol, Jakarta",-6.168253,106.786871,DKI Jakarta,Jakarta Barat,Grogol Petamburan
Jembatan Kota Intan Cafe,Kota,"Jl. Kali Besar Barat No. 50, Kota, Jakarta",-6.1314150000000005,106.810105,DKI Jakarta,Jakarta Barat,Tambora
Kedai Nikmat,Bogor Utara,"Jl. Raya Sukahati No. 2, Bogor Utara, Bogor",-6.486413,106.816788,Jawa Barat,Bogor Kabupaten,Cibinong
Ikost Kupii,Serpong,"Jl. Cemara IV No. 29, Serpong, Tangerang",-6.3057747407,106.684285551,Banten,Tangerang Selatan,Serpong
Warung Papatong,Bogor Utara,"Jl. Alternatif GOR Pemda No. 9, Bogor Utara, Bogor 16912",-6.511861,106.832992,Jawa Barat,Bogor Kabupaten,Cibinong
New Hongkong,Grogol,"Q Food & Music, Jl. Dr Susilo Raya C8, Grogol, Jakarta",-6.165829,106.795885,DKI Jakarta,Jakarta Barat,Grogol Petamburan
Baso Malang Oasis,Benda,"Soekarno Hatta International Airport, Terminal 1A, Jl. Raya Bandara, Benda, Tangerang",-6.1291910000000005,106.657886,Banten,Tangerang Kota,Benda
Soto Betawi Pak Agus,Neglasari,"Jl. Marsekal Surya Darma No. 59, Neglasari, Tangerang",-6.15658,106.632757,Banten,Tangerang Kota,Neglasari
Wargyu,Bekasi Utara,"Summarecon Mall Bekasi, Lantai 3, Food Temptation, Jl. Ahmad Yani, Bekasi Utara, Bekasi",-6.225318205800001,107.00192380700001,Jawa Barat,Bekasi Kota,Bekasi Utara
Bakmi 3K,Daan Mogot,"Jl. Kosambi Selatan Raya, Blok C6 No. 50, Daan Mogot, Jakarta",-6.173780000000002,106.713459,DKI Jakarta,Jakarta Barat,Cengkareng
Oui Homemade,Fatmawati,"Jl. Gaharu 1 No. 11, Fatmawati, Jakarta",-6.279306,106.800122,DKI Jakarta,Jakarta Selatan,Cilandak
Marura Coffee & Kitchen,Ciledug,"Jl. Raden Patah No. 72, Ciledug, Tangerang",-6.251129,106.702465,Banten,Tangerang Kota,Ciledug
Mie Ayam Jojo,Penjaringan,"Jl. Tanah Pasir No. 15. Penjaringan, Jakarta",-6.1291213367,106.79420951700001,DKI Jakarta,Jakarta Utara,Penjaringan
"Nasi Campur Pontianak ""Fajar""",Kota,"Pancoran Chinatown Point, Lantai 2, Jl. Pancoran No. 42A, Kota, Jakarta",-6.140877,106.813256,DKI Jakarta,Jakarta Barat,Tamansari
"Toge Goreng ""Pak Kodir""",Senen,"Plaza Atrium, Lantai 4, Food Colony, Jl. Senen Raya No. 135, Senen, Jakarta",-6.1769672926,106.84103921,DKI Jakarta,Jakarta Pusat,Senen
Gelas Merah Coffee,Serpong Utara,"Jl. Graha Bintaro Selatan IV, Serpong Utara, Tangerang",-6.254841000000001,106.684582,Banten,Tangerang Selatan,Pondok Aren
Sate Taichan Bang Tetew,Sunter,"Jl. Danau Sunter Utara, Blok J 12 No. 26-28, Sunter, Jakarta 14350",-6.137467,106.873776,DKI Jakarta,Jakarta Utara,Tanjung Priok
Brolunch,Cakung,"Jl. Sawo Kecik No. 96, Cakung, Jakarta",-6.2153971326,106.94582674600001,DKI Jakarta,Jakarta Timur,Cakung
Lemoe Burger,Cawang,"Pusat Grosir Cililitan, Lantai Ground, Jl. Mayjen Sutoyo No. 76, Cawang, Jakarta",-6.262065,106.86512,DKI Jakarta,Jakarta Timur,Kramatjati
Kwetiau Sapi Mabes 77,Senen,"Plaza Atrium, Lantai 4, Food Colony, Jl. Senen Raya No. 135, Senen, Jakarta",-6.1773102886,106.84135437,DKI Jakarta,Jakarta Pusat,Senen
Dewan Cafe,Bekasi Timur,"Jl. RA Kartini, Bekasi Timur, Bekasi",-6.249590814299999,107.000579685,Jawa Barat,Bekasi Kota,Bekasi Timur
Pitagor,Tanjung Duren,"Central Park, Lantai 2, Pasar Rame, Jl. Letjen S. Parman, Tanjung Duren, Jakarta",-6.1781062786000005,106.791318096,DKI Jakarta,Jakarta Barat,Grogol Petamburan
Korean Garden - Hotel Classic Building,Pasar Baru,"Hotel Classic Building, Jl. H. Samanhudi No. 43 - 45, Pasar Baru, Jakarta",-6.161441,106.829684,DKI Jakarta,Jakarta Pusat,Sawah Besar
Nomti Fresh Thai Tea,Cawang,"Pusat Grosir Cililitan, Lantai Ground, Jl. Mayjen Sutoyo No. 76, Cawang, Jakarta",-6.190988,106.884327,DKI Jakarta,Jakarta Timur,Pulogadung
Warung Makan Satria,Bendungan Hilir,"Jl. Pejompongan Raya No.12, Bendungan Hilir, Jakarta",-6.204953906,106.806242577,DKI Jakarta,Jakarta Pusat,Tanah Abang
Sate Kambing Muda Tegal H. Kayi,Bekasi Selatan,"Ruko Griya Alifa Blok A No. 5, Jl. Pulo Ribung, Bekasi Selatan, Bekasi",-6.268078,106.977038,Jawa Barat,Bekasi Kota,Bekasi Selatan
Coffee The Explorer,Daan Mogot,"Jl. Raya Pondok Randu No. 70-74, Daan Mogot, Jakarta",-6.170819,106.727531,DKI Jakarta,Jakarta Barat,Cengkareng
Senoesa,Thamrin,"UOB Plaza, Lantai Basement, Food Parc, Jl. M. H. Thamrin No. 10, Thamrin, Jakarta",-6.198957,106.822744,DKI Jakarta,Jakarta Pusat,Tanah Abang
Ayam Geprek Maz Bagus,Bekasi Utara,"Jl. Lingkar Bumi Anggrek, Blok S No. 2, Bekasi Utara, Bekasi",-6.2160840745,107.04053018200001,Jawa Barat,Bekasi Kabupaten,Tambun Utara
Warung Sate Solo Pak Agus,Pondok Melati,"Jl. Raya Hankam, Pondok Melati, Bekasi",-6.3200135515,106.923778988,Jawa Barat,Bekasi Kota,Pondok Melati
The Lounge - Park Regis Arion,Kemang,"Park Regis Arion, Jl. Kemang Raya No. 7, Kemang, Jakarta 12730",-6.256602,106.81517,DKI Jakarta,Jakarta Selatan,Mampang Prapatan
Sate Taichan Jawara,Kebon Jeruk,"JAWARA Food Court, Jl. Meruya Ilir Raya No. 25, Kebon Jeruk, Jakarta",-6.198121,106.758936,DKI Jakarta,Jakarta Barat,Kembangan
Kanorai,Gambir,"Stasiun Gambir, Lantai Ground, Jl. Medan Merdeka Timur No. 1, Gambir, Jakarta",-6.176686,106.83078,DKI Jakarta,Jakarta Pusat,Gambir
Douwe Egberts,Makasar,"Jl. Komodor Halim Perdana Kusuma No. 15, Makasar, Jakarta",-6.265672,106.88516,DKI Jakarta,Jakarta Timur,Makasar
Dapur 88,Bogor Timur,"Jl. Bina Marga 1 No. 11, Bogor Timur, Bogor",-6.604182091,106.80892948,Jawa Barat,Bogor Kota,Bogor Timur
AJ Brandon - Hotel Classic Building,Pasar Baru,"Hotel Classic Building, Jl. H. Samanhudi No. 43-45, Pasar Baru, Jakarta",-6.161835,106.829786,DKI Jakarta,Jakarta Pusat,Sawah Besar
Martabak Telor Jabidin,Dharmawangsa,"Loksem JS 32 - Pujasera Melawai, Jl. Melawai No.22, Melawai, Jakarta",-6.2466049178,106.800803393,DKI Jakarta,Jakarta Selatan,Kebayoran Baru
WXYZ Bar,Cilandak,"Aloft Jakarta TB Simatupang, Jl. TB Simatupang No.Kav 8, Cilandak, Jakarta",-6.291793,106.816292,DKI Jakarta,Jakarta Selatan,Pasar Minggu
Bakmi Bakar Om Ben,Senopati,"Pasar Santa, Lantai 1, Jl Cipaku I, Senopati, Jakarta",-6.2400728140999995,106.812288276,DKI Jakarta,Jakarta Selatan,Kebayoran Baru
Ceban Kenyang,Setu,"Jl. Raya Serpong, Blok F No. 6, Setu, Tangerang",-6.349596,106.673037,Banten,Tangerang Selatan,Setu
Soerabi Family,Cimanggis,"Jl. Pekapuran No. 2, Cimanggis, Depok",-6.3994244984,106.877277866,Jawa Barat,Depok,Tapos
Toko Kue Laras,Cinere,"Jl. Cinere Raya No. 102, Cinere, Depok",-6.337415,106.781482,Jawa Barat,Depok,Cinere
Pondok Teduh,Kemanggisan,"Jl. Rawa Belong. Kemanggisan, Jakarta",-6.2001940000000015,106.782515,DKI Jakarta,Jakarta Barat,Palmerah
D'90s Coffee,Cengkareng,"Ruko CBD, Blok F2 No. 10, Jl. Malibu Raya, Cengkareng, Jakarta",-6.135341,106.737027,DKI Jakarta,Jakarta Barat,Cengkareng
Roti Ropi,Sukmajaya,"Jl. Kejayaan, Blok X No. 9, Sukmajaya, Depok",-6.3922620000000006,106.851912,Jawa Barat,Depok,Sukma Jaya
Galada,Serpong Utara,"Ruko Golden 8, Jl. Ki Hajar Dewantara, Blok D No. 10, Serpong Utara, Tangerang",-6.239739524400001,106.636488586,Banten,Tangerang Kabupaten,Kelapa Dua
The Kitchen 153,Serpong Utara,"Ruko Blitz, Blok A No. 2, Jl. Gading Serpong, Serpong Utara, Tangerang",-6.2450584707,106.61151487299999,Banten,Tangerang Kabupaten,Kelapa Dua
Mr. D,Daan Mogot,"Mall Matahari, Lantai Ground, Jl. Daan Mogot, Daan Mogot, Jakarta",-6.151061,106.714294,DKI Jakarta,Jakarta Barat,Kalideres
Ceka Coffee Kitchen,Kelapa Gading,"Mitra Gading Villa, Jl. Raya Klp. Hybrida, Kelapa Gading, Jakarta",-6.1460360000000005,106.9025,DKI Jakarta,Jakarta Utara,Kelapa Gading
Kopi Lugu,Kuningan,"Epicentrum Walk, Lantai Ground, Jl. HR. Rasuna Said, Kuningan, Jakarta",-6.218297214400001,106.83483459,DKI Jakarta,Jakarta Selatan,Setiabudi
Bakwan Malang Mas No,Bekasi Barat,"Jl. Kasuari Raya No. 133, Bekasi Barat, Bekasi",-6.2377077853,106.982577033,Jawa Barat,Bekasi Kota,Bekasi Selatan
Kopi Kathah,Pondok Aren,"Jl. Merak Raya No. 4, Pondok Aren, Tangerang",-6.2663150000000005,106.735403,Banten,Tangerang Selatan,Pondok Aren
Mie Ayam Bakso Gado Gado Ketoprak Muhammad Lomri,Gambir,"Lenggang Jakarta, Blok C 39 Jl. Medan Merdeka Selatan, Gambir, Jakarta",-6.180331,106.825589,DKI Jakarta,Jakarta Pusat,Gambir
Starbeef One,Cengkareng,"Mall Taman Palem, Lantai 3, Food Court, Jl. Raya Kamal, Cengkareng, Jakarta",-6.1397800707000005,106.731081046,DKI Jakarta,Jakarta Barat,Cengkareng
